,names,managers,addresses,types,urls,phones,被保険者数,登記注意事項,lat,lon
0,錦電サービス株式会社,河野朗,足立区千住旭町３８番１号２０１,サービス,http://www.kinden-service.co.jp/top.html,03-3291-3376,65,,35.748874,139.80716
1,株式会社トライ,-,足立区東六月町１１番３３号,情報・通信,-,-,,,35.787524,139.806009
2,株式会社広彩社,一條菊義,足立区千住宮元町１番４号,建設,http://www.kosaisyakk.jp/SITE/HOME.html,03-3870-4805,12,,35.746798,139.796199
3,七陽商事株式会社,鈴木聡,足立区梅島２丁目７番４号,商社,https://www.nanayojapan.com/,03-6721-5208,2,,35.77665,139.800335
4,株式会社ジェイオーシャン,-,足立区東綾瀬１丁目１１番１号,商社,-,-,0,,35.764485,139.832352
5,フジライトカーペット株式会社,辻田健二郎,足立区西伊興４丁目９番１０号,建設,http://www.fujilight.co.jp/,-,0,,35.802893,139.780417
6,株式会社ジンガーワンコーポレーション,-,足立区江北４丁目２９番１７号,小売,-,-,,,35.773847,139.766786
7,エイカン株式会社,-,足立区梅田３丁目２１番１８号,-,-,-,,,35.763036,139.79696
8,北立建設工業株式会社,金谷朝東,足立区入谷９丁目１４番１号,建設,http://www.hokuritsu.jp/,03-3864-7500,38,,35.809011,139.754661
9,株式会社キャリアメディカル,-,足立区千住３丁目６番１２号,医療・福祉,-,-,1,,35.751635,139.802709
10,株式会社イボルブ,-,足立区扇３丁目２５番１２号メゾン・ド・レゴ２０１,-,-,-,0,,35.770022,139.772176
12,株式会社ヒューズ,-,足立区西新井３丁目３番３号,-,-,-,0,,35.788332,139.781409
13,株式会社伊関工務店,伊関克悦,足立区宮城１丁目１３−１３メゾン真田１０１号,建設,http://www.isekikoumuten.co.jp,03-5902-5570,1,,35.75933,139.755095
14,株式会社セイコーシステムズ,-,足立区千住旭町２番１号江角ビル３０１号,-,-,-,0,,35.748874,139.80716
15,シーピーエス株式会社,-,足立区南花畑３丁目６番１号,-,-,-,1,,35.792441,139.824996
16,株式会社ブレイヴ,高橋豊,足立区保塚町８番１５号,商社,-,-,3,,35.786674,139.812942
17,株式会社アールミュゼット,-,足立区綾瀬４丁目２２番１９号,-,-,-,2,,35.765351,139.822318
18,株式会社秀,-,足立区扇１丁目３１番１４号,-,-,-,1,,35.762366,139.774261
19,株式会社創建ホーム,-,足立区栗原３丁目４番５号,建設,-,-,,,35.780269,139.785368
21,東京富士見工房株式会社,-,足立区鹿浜６丁目１４番９号,サービス,-,-,0,,35.786345,139.759033
22,株式会社ブランチウッドサービス,-,足立区谷中２丁目１番１２号,-,-,-,4,,35.775863,139.832888
23,株式会社デライトアップ,中込眞次,足立区千住１丁目４番１号,建設,http://www.delightup.jp/,03-5835-3277,2,,35.747835,139.801407
24,株式会社ミネルヴァ,工藤静栄,足立区青井３丁目５番２６−７３１号,情報・通信,http://www.minerva-trade.com/,-,,,35.771768,139.819242
25,株式会社ＨＵＭＡＮ　ＣＵＢＥｉｎｇ,-,足立区神明南２丁目７番２０号,-,-,-,,,35.789237,139.832085
26,株式会社日本伝播社,-,足立区千住２丁目２９番地,-,-,-,0,,35.74958,139.801967
27,天万年株式会社,-,足立区鹿浜６丁目１４番７号,-,-,-,5,,35.786345,139.759033
28,ＫＫブレイク株式会社,稲垣壽之,足立区扇２丁目２５番１号,-,-,-,28,,35.763224,139.765885
29,株式会社ポンドフィールド,-,足立区綾瀬１丁目３２番６号山和ビル３階,-,-,-,,,35.758847,139.822005
30,株式会社ベータプロジェクト,-,足立区綾瀬４丁目９−１８−５０６号,-,-,-,,,35.765351,139.822318
31,株式会社フィンテック研究所,-,足立区中央本町１丁目１１番７号センチュリー梅島１１０１,-,-,-,,,35.772771,139.804417
32,株式会社東東京イエローハット,鈴木弘三,足立区平野１丁目１４番２４号,-,http://www.yellowhat.jp/corp/about/group.html,-,174,,35.779852,139.805621
33,タクミテック株式会社,-,足立区千住宮元町２番７号,-,-,-,1,,35.746798,139.796199
36,株式会社ＳＴＯＣＫ８１,-,足立区栗原３丁目２５番１−３２２号,-,-,-,,,35.780269,139.785368
37,株式会社Ｌ．Ｌ,-,足立区鹿浜８丁目２８番１号ＫＳ第一ビル１・２階,-,-,-,,,35.788198,139.763594
38,有限会社ジェイ・ジクウ,-,足立区江北３丁目４７番２号,-,-,-,,,35.774461,139.761223
39,有限会社プランテック,-,足立区扇３丁目１９番５−３０９号,メーカー,-,-,,,35.770022,139.772176
40,有限会社フィフス・プラネット・ジャパン,-,足立区新田３丁目２６番１０号,情報・通信,-,-,,,35.771394,139.748646
41,有限会社アルク,佐藤信美,足立区南花畑１丁目１３番１０号,-,-,-,1,,35.787716,139.82441
42,パインズ建物管理合同会社,-,足立区千住寿町１４−１７,-,-,-,2,,35.753088,139.799171
43,ジュラン合同会社,-,足立区栗原１丁目２番１−８０３号,-,-,-,,,35.780414,139.789422
44,合同会社Ｌａｎｄ,-,足立区六木３丁目２８番２号,-,-,-,,,35.797245,139.842774
45,合同会社エルブトキオ,-,足立区千住旭町２２−１３,-,-,-,,,35.748874,139.80716
46,天理教峽月分教会,-,足立区西新井本町４丁目１２番２７号,-,-,-,,,35.772781,139.777998
47,特定非営利活動法人エスエルシーシー矍鑠協会,-,足立区谷中２丁目５番１０号イチゲビル２Ｆ,-,-,-,,,35.775863,139.832888
48,一般社団法人教育環境研究機構,-,足立区梅田２丁目４番１９号,-,-,-,,,35.765632,139.801509
49,株式会社モーフィール,-,足立区中川４丁目１２番１２号メゾン・ド・富士１００号室,-,-,-,5,,35.771442,139.846681
50,ニューライン株式会社,-,足立区千住宮元町１２−１２−２０１,-,-,-,0,,35.746798,139.796199
51,ビル・コンサルタント株式会社,-,足立区扇３丁目１８番１３−４１９号,サービス,-,-,,,35.770022,139.772176
52,株式会社フラット,-,足立区本木南町２１番１６号,サービス,-,-,1,,35.760899,139.781737
53,株式会社飯尾建築設計事務所,-,足立区足立２丁目１５番９号,サービス,-,03-5414-7038,0,,35.758779,139.81049
54,パートナーサービス株式会社,-,足立区青井３丁目３３番２２−９０１号,-,-,-,,,35.771768,139.819242
55,株式会社ジェイプラネット,-,足立区新田３丁目３５−３１−６０３,-,-,-,0,,35.771394,139.748646
56,株式会社ビューティー＆オブリージュ,-,足立区青井３丁目５番２６−１００２号,-,-,-,0,,35.771768,139.819242
57,株式会社ＭａｋｅＷａｖｅｓ,-,足立区西新井本町５丁目１２番１９−９０１号,-,http://makewaves.co.jp,-,0,,35.773892,139.783153
58,株式会社ＪＲＳ,-,足立区西新井栄町２丁目２０番１号,-,-,-,,,35.7766,139.788031
59,株式会社ノース,-,足立区竹の塚６丁目２４番１号,-,-,-,,,35.795695,139.792763
61,株式会社太陽,-,足立区鹿浜３丁目１１番５−１０１号,-,-,-,7,,35.781121,139.753482
62,株式会社オールラウンダー,-,足立区西新井１丁目２５−３ディアヒルズ２０３,-,-,-,,,35.78031,139.781021
63,株式会社ＨＯＮＥＹＮＡ,-,足立区島根３丁目２１−１３−１０８,-,-,-,,,35.779603,139.794499
64,株式会社Ｐｒｏｐｒｅ　Ｊａｐａｎ,-,足立区竹の塚６丁目９番７号,-,-,-,3,,35.795695,139.792763
65,株式会社ＷＨＩＴＥフェニックス,-,足立区保木間２丁目６番１３号,-,-,-,2,,35.793455,139.806234
66,読道株式会社,-,足立区西新井３丁目１７番１−９０６,-,-,-,1,,35.788332,139.781409
67,株式会社令和不動産,-,足立区谷在家３丁目２０番１３号,-,-,-,,,35.788807,139.768057
68,株式会社ＣＯＲＤ,-,足立区扇３丁目１３番１６号１Ｆ,-,-,-,8,,35.770022,139.772176
69,新緑合同会社,-,足立区梅島２丁目３８番１６号,-,-,-,,,35.77665,139.800335
70,株式会社三宝商会,-,足立区平野１丁目１４番４号,サービス,-,-,1,,35.779852,139.805621
72,日栄機工株式会社,-,足立区保木間２丁目９番５号,建設,http://homepage3.nifty.com/nichiei/,03-3847-4031,2,,35.793455,139.806234
73,株式会社シー・エス・シー,-,足立区青井２丁目１６番１−８０１号,情報・通信,-,-,0,,35.772297,139.814732
74,株式会社三沢建築研究所,-,足立区中川２丁目３番１０号,-,-,-,,,35.769147,139.855327
75,Ｎｅｏ　Ｐｒａｎａ株式会社,-,足立区竹の塚６丁目９−２第７丸本ビル２Ｆ,-,-,-,,,35.795695,139.792763
76,株式会社中安実業,夏小俊,足立区鹿浜３丁目４番２６中安ビル,建設,http://www.chuanbiz.com/default.aspx,-,16,,35.781121,139.753482
77,株式会社ケーズカンパニー,-,足立区中央本町２丁目１番１３号,メーカー,-,03-3871-1433,,,35.769019,139.807742
78,東京メディカルスクール株式会社,岡田優一郎,足立区綾瀬３丁目７番１５号綾瀬岩崎ビル２階Ａ−１号室,教育・研究,http://tokyo-medicalschool.com,-,1,,35.764004,139.826444
79,株式会社アニメ企画,-,足立区宮城１丁目１５番５号,-,-,-,,,35.75933,139.755095
80,株式会社共栄トラスト,-,足立区足立１丁目６番６号,不動産、レンタル・リース,-,-,16,,35.761522,139.805576
81,鼎峰国際商事株式会社,-,足立区梅島３丁目３６−２２白金ビル２０２室,-,-,-,1,,35.775806,139.794888
82,株式会社ミーツパブリッシング,-,足立区千住３丁目６１番地,-,-,-,1,,35.751635,139.802709
83,株式会社欧澤,-,足立区鹿浜５丁目２３番１号,-,-,-,,,35.785595,139.754383
84,株式会社白哲,-,足立区舎人３丁目１５番１８号,-,-,-,,,35.813186,139.773673
85,株式会社六紋,-,足立区扇２丁目２０番１２号,-,-,-,4,,35.763224,139.765885
86,株式会社皓元国際商社,-,足立区江北７丁目３番１号,-,-,-,1,,35.780768,139.763566
87,シーエスファシリティーズ株式会社,-,足立区扇３丁目１６番１２号,-,-,-,,,35.770022,139.772176
88,ベラッコ株式会社,-,足立区本木西町１０番２号,-,-,-,2,,35.760305,139.779444
89,有限会社白倉工務店,-,足立区西綾瀬３丁目３３番１０号,建設,-,-,,,35.764148,139.816971
90,蓬莱大観光有限会社,-,足立区柳原２丁目２７番７号,-,-,-,,,35.748855,139.813804
91,有限会社ニチギン,津崎次年,足立区一ツ家３丁目５番１３−１０８号,商社,-,-,,,35.780196,139.813414
92,有限会社バキングエフ,-,足立区竹の塚６丁目１５番１２号,-,-,-,,,35.795695,139.792763
93,株式会社新建,-,足立区青井３丁目３６番４号,-,-,-,,,35.771768,139.819242
94,株式会社ヒラタ,-,足立区扇３丁目２番１号,-,-,-,0,,35.770022,139.772176
95,株式会社高橋法輪堂,-,足立区大谷田３丁目８番１２号,商社,-,-,1,,35.778755,139.841164
96,中央保険企画株式会社,-,足立区加賀１丁目２番５号,-,-,-,1,,35.788745,139.758953
97,株式会社エヌ・シー・エス,-,足立区梅田８丁目１４番２−６２６号,小売,-,-,2,,35.772921,139.795128
98,トラアークス株式会社,-,足立区東保木間２丁目３番５号,-,-,-,1,,35.792872,139.813541
101,株式会社ＲｅＢｉｒｔｈＰｌａｎ,池田光,足立区扇１丁目４５番１５号エトワール・フルール１０６,-,http://rebirthplan.co.jp/,-,,,35.762366,139.774261
102,株式会社ＦＴＡ,-,足立区六木１丁目４番１８号,-,-,-,5,,35.791125,139.837839
103,株式会社淘旅行,-,足立区舎人３丁目７−８−３０１,-,-,-,6,,35.813186,139.773673
104,石川工業株式会社,-,足立区扇２丁目１８番１７号,-,-,-,,,35.763224,139.765885
105,株式会社りんりんファーマシー,-,足立区青井２丁目３２番１２号,-,-,-,2,,35.772297,139.814732
106,株式会社ビバ,-,足立区南花畑３丁目３４番１１号,-,-,-,0,,35.792441,139.824996
107,三峰株式会社,-,足立区大谷田１丁目１９番１５号,-,-,-,1,,35.77854,139.846903
108,株式会社トゥ・シャイン,-,足立区竹の塚５丁目６番１１号高山ビル１Ｆ,-,-,-,1,,35.795687,139.796115
109,有限会社フレックス,-,足立区谷中１丁目１０番３−２０３号,-,-,-,,,35.77249,139.832129
110,有限会社ウエスト,-,足立区中川４丁目４３番３号,建設,-,-,,,35.771442,139.846681
111,有限会社ケーズクリーン東京,-,足立区入谷９丁目１６番１７号,-,-,-,6,,35.809011,139.754661
112,有限会社翼電気建設工業,山川博昭,足立区千住関屋町２３番８号,建設,-,03-3618-5957,4,,35.741334,139.806568
113,有限会社トム・テック,-,足立区西竹の塚１丁目１１番２号エミエルタワー竹ノ塚２００６,建設,-,-,2,,35.792027,139.788406
114,有限会社エスケービジネス,-,足立区中川３丁目８番３号ミュージックハウスＡ２１０,-,-,-,,,35.771376,139.854087
115,有限会社イシモリ,-,足立区花畑３丁目３３番７号,-,-,-,2,,35.803676,139.81266
116,合同会社ジュンサンカ,-,足立区保木間１丁目９番４号,-,-,-,,,35.790538,139.806494
117,一般社団法人幸せ相続相談所,-,足立区島根３丁目９番５−１０２号,-,-,-,,,35.779603,139.794499
118,株式会社トミカ,-,足立区千住４丁目１番９号,不動産、レンタル・リース,-,-,1,,35.753395,139.803278
119,株式会社アンド・ライフ,-,足立区保木間４丁目４番３号,-,-,-,,,35.798723,139.805974
120,株式会社ＩＶＩ,-,足立区江北１丁目２５番１８号,建設,-,-,3,,35.769804,139.768329
121,株式会社敬東商事,-,足立区梅田７丁目３４番１３号,-,-,-,,,35.769553,139.800673
122,陽光株式会社,-,足立区綾瀬４丁目１９番１５−２０２号,情報・通信,-,-,1,,35.765351,139.822318
123,株式会社ＧＯＬＫＡＮＯ．,-,足立区六町４丁目４−３５サンライズ六町１００１号,-,-,-,1,,35.785655,139.822972
124,株式会社グローバルフォース,-,足立区西竹の塚２丁目４番４号１−１１２号室,-,-,-,0,,35.796069,139.789875
125,ファースト物流株式会社,安藤裕一郎,足立区入谷５丁目１５番２０号,運輸・倉庫関連,https://www.first-log.net,03-3768-4319,15,,35.803842,139.762302
126,アドバンスＫ＆Ｂファーム株式会社,-,足立区弘道１丁目１４番１０号,商社,-,-,,,35.768519,139.812339
127,株式会社ファミリーテック,-,足立区大谷田４丁目１番２０号,-,-,-,6,,35.778912,139.838128
128,ＣＰＭ株式会社,-,足立区西新井１丁目２５−３−２０４号,-,-,-,,,35.78031,139.781021
129,株式会社ｓｅｅＤＮＡ,金起範,足立区竹の塚３丁目１０−１竹の塚ビル２Ｆ,サービス,https://seedna.co.jp/,-,20,,35.790758,139.800143
130,ＣＬ株式会社,-,足立区千住宮元町２０番９号,情報・通信,-,-,,,35.746798,139.796199
131,有限会社上沼商事,-,足立区入谷４丁目６番１−６０１号,-,-,-,1,,35.806246,139.761221
133,株式会社ＥＮ　ｄｅｓｉｇｎ,-,足立区綾瀬１丁目４番３号,サービス,-,-,0,,35.758847,139.822005
134,株式会社スマートアセットマネジメント,高見英治,足立区南花畑３丁目３５番１４号フラワーヒルズ１０３号,-,http://best-pln.com/top.php,-,,,35.792441,139.824996
136,株式会社マイキーズ＆チャンクス,-,足立区千住旭町９番１３号タカラマンション２０７,サービス,http://www.mikeysandchunks.com/companyprofile.html,-,1,,35.748874,139.80716
137,株式会社スプリング,-,足立区千住寿町８番７号１０２,医療・福祉,-,-,,,35.753088,139.799171
138,アールツーエイチエー株式会社,-,足立区江北３丁目２２番２５号,-,-,-,,,35.774461,139.761223
139,株式会社北村,-,足立区保木間５丁目１番１号第１２新井ビル３０１号室,情報・通信,-,-,1,,35.80436,139.803197
140,ＣＭＳ　ＪＡＰＡＮ株式会社,-,足立区谷中１丁目１８番１４,-,-,-,,,35.77249,139.832129
141,凱詰株式会社,-,足立区竹の塚２丁目２９番１２号２階,-,-,-,,,35.791029,139.795441
142,株式会社遠,-,足立区扇１丁目４番１４号,-,-,-,,,35.762366,139.774261
143,有限会社リングッド,-,足立区大谷田５丁目３０番１号,-,-,-,1,,35.78373,139.839345
144,有限会社チーム・スパイラル,-,足立区梅島３丁目３２番２５−９０９号,情報・通信,-,-,,,35.775806,139.794888
145,有限会社ＡＲＣＴＩＣ,-,足立区西新井栄町２丁目１８番１６号,-,-,-,,,35.7766,139.788031
146,有限会社アイ・ティ・シー,-,足立区新田１丁目１７番７−８０４号,-,-,-,,,35.777123,139.740471
147,一般社団法人企業主導型保育連盟,-,足立区南花畑２丁目１５番１７号,-,-,-,,,35.790927,139.819521
148,五菱企画株式会社,-,足立区梅田４丁目３９番２６号,建設,-,-,,,35.762929,139.793216
149,朝日テスコム株式会社,三枝健一,足立区綾瀬２丁目３番１０号ホワイトシティ１０１,建設,-,03-3202-0192,2,,35.759926,139.828332
150,株式会社フィッツ,-,足立区北加平町六丁目６番,建設,-,-,0,,35.784064,139.828437
151,株式会社大成トレーディング,-,足立区関原１丁目３−２,-,-,-,,,35.761855,139.789455
152,株式会社ＪＨ企画,-,足立区六木３丁目１７番１０号,-,-,-,,,35.797245,139.842774
153,株式会社出口商事,-,足立区本木１丁目２６番４号,-,-,-,10,,35.761206,139.785729
154,株式会社ペンギン,-,足立区梅島３丁目３６番２６号,-,-,-,1,,35.775806,139.794888
156,有限会社海人,-,足立区西伊興４丁目１番１１号,-,-,-,,,35.802893,139.780417
157,有限会社ユウ企画,-,足立区西伊興３丁目２番１１号,メーカー,-,03-3266-8878,0,,35.798353,139.777356
158,有限会社シモジマ,-,足立区伊興３丁目２３−２５エクセル伊興２０３号,-,-,-,,,35.793973,139.785411
160,株式会社日清機械,-,足立区小台１丁目２７番５号,商社,-,-,5,,35.755444,139.771557
161,ＡＹＡＫＡ株式会社,-,足立区加平１丁目２１番１４号,メーカー,-,-,,,35.775903,139.826866
162,株式会社オーキニー,-,足立区中央本町３丁目１２番１号,その他,-,-,,,35.772271,139.808058
163,酷＿株式会社,-,足立区大谷田３丁目１７−４サンフラワー１号館１０３Ｂ,-,-,-,,,35.778755,139.841164
164,株式会社ＣＵＴ,竹内史和,足立区千住２丁目４５番地,-,http://cut.co.jp/,-,,,35.74958,139.801967
165,株式会社エス・セーリング,-,足立区小台１丁目１６−１２−２０３,-,-,-,1,,35.755444,139.771557
166,富友商事株式会社,-,足立区梅田８丁目１４番２−１０３６号,-,-,-,1,,35.772921,139.795128
167,らく通株式会社,-,足立区花畑３丁目２１−８ビューポイント２０４,-,-,-,3,,35.803676,139.81266
168,有限会社エコー設備,-,足立区新田３丁目３７番１３,建設,-,-,1,,35.771394,139.748646
169,有限会社ジーアンドジェイ,-,足立区千住大川町６番１−１４０１号,-,-,-,1,,35.757149,139.79809
170,有限会社ＡＣＥ　ＴＥＣＨ,-,足立区新田３丁目３６番２−２０５号,-,-,-,,,35.771394,139.748646
171,旭永国際合同会社,-,足立区神明南１丁目２−１０,-,-,-,,,35.788641,139.828751
172,合同会社Ｔｏｗａ　Ｅｘｐｒｅｓｓ,-,足立区千住１丁目４番１号東京芸術センター１０階,-,-,-,0,,35.747835,139.801407
173,株式会社プラクティス,-,足立区新田３丁目３４番５号,教育・研究,-,-,3,,35.771394,139.748646
174,株式会社メックサービス,-,足立区竹の塚３丁目１９番１２号,-,-,-,3,,35.790758,139.800143
175,クラウン商事株式会社,本間悦子,足立区舎人２丁目２番４号グリーンヴィレッジ４０２,サービス,http://www.crown.biz-web.jp,-,1,,35.811296,139.771662
176,常南電設株式会社,山下桂壽,足立区大谷田４丁目１番２号,建設,-,03-3803-2521,2,,35.778912,139.838128
177,株式会社ワールドリング,片桐俊一,足立区宮城１丁目２８番２０号,小売,http://www.world-ring.com/,-,19,,35.75933,139.755095
178,株式会社柳葉コーポレーション,-,足立区足立４丁目２０番１２号ＶＩＬＬＡ五反野１０１,-,-,-,,,35.766192,139.805789
179,株式会社デュコル,代表取締役 山本 邦明,足立区入谷９丁目６番１５号,建設,http://www.ducol.co.jp/,03-6698-2777,8,,35.809011,139.754661
180,株式会社スリーエアテック,-,足立区伊興２丁目１４番５号,-,-,-,3,,35.792936,139.781086
181,矢野建設工業株式会社,-,足立区江北４丁目２５番１０号,-,-,-,9,,35.773847,139.766786
182,株式会社緑環,丸山逸朗,足立区新田３丁目３６番１１−９０４号,建設,http://www.ryokkan.co.jp/,03-5933-6470,1,,35.771394,139.748646
183,ＳＨＡＡＺＡＡ　ＩＮＴＥＲＮＡＴＩＯＮＡＬ株式会社,-,足立区加賀２丁目３１番４−７０６号,-,-,-,1,,35.792695,139.760153
184,株式会社Ａ・Ｋ・Ｋ７,-,足立区大谷田５丁目９番９号パレノーブル１０３,-,-,-,,,35.78373,139.839345
185,株式会社ショウ,-,足立区宮城１丁目１０番２号,情報・通信,-,-,2,,35.75933,139.755095
186,株式会社Ｇｒａｖｉｓ,竹内拓也,足立区西新井栄町１丁目５−１７,-,https://www.qoo10.jp/shop/eikoumarket,-,,,35.774025,139.788795
187,中城商事株式会社,-,足立区鹿浜２丁目２６番１３号,-,-,-,1,,35.781856,139.747084
188,美貴建設株式会社,-,足立区東綾瀬３丁目１番１５号,-,-,-,7,,35.770916,139.833559
189,株式会社新和,-,足立区扇１丁目２７番３０号,-,-,-,5,,35.762366,139.774261
190,中兮株式会社,-,足立区新田３丁目３７番１３−１２１２,-,-,-,,,35.771394,139.748646
191,株式会社セイコーカンパニー,-,足立区古千谷本町４丁目２番７号,-,-,-,1,,35.80647,139.780199
192,有限会社マジカルエア,-,足立区新田２丁目８番３号,-,-,-,,,35.772706,139.741102
194,有限会社Ｙｏｕｎｇ＆Ｂｅａｕｔｙ,-,足立区新田１丁目８番２３号レーベンスクエアリハート６０２号,-,-,-,,,35.777123,139.740471
195,有限会社ティスモ,-,足立区西新井４丁目１９番４号エンゼルハイム西新井第二４０１号室,不動産、レンタル・リース,-,03-6692-6939,0,,35.787855,139.775443
196,合同会社植村特注家具,-,足立区平野１丁目１７番９号,メーカー,-,-,2,,35.779852,139.805621
197,イノーバス株式会社,-,足立区鹿浜４丁目２１番７号,-,-,-,2,,35.781259,139.758237
198,エスペランス合同会社,-,足立区中央本町４丁目１８−２−４０６号,-,-,-,,,35.775434,139.808267
199,猛画合同会社,-,足立区中央本町３丁目１６番２２−２０３号,-,-,-,1,,35.772271,139.808058
200,スリーディングス株式会社,-,足立区綾瀬１丁目２７番１６号カーサヤマモト１０１,-,-,-,,,35.758847,139.822005
201,株式会社クリップ,-,足立区南花畑１丁目８番２０号,情報・通信,-,-,2,,35.787716,139.82441
202,株式会社レイシア,-,足立区千住１丁目３番６号ＴＯＣビル３階,-,-,-,3,,35.747835,139.801407
203,合同会社ライフ・バリュー・クリエーション,-,足立区千住１丁目４番１号,-,-,-,,,35.747835,139.801407
204,株式会社新地,-,足立区本木２丁目２１番１７号リック西新井,-,-,-,,,35.767596,139.785349
205,株式会社ヤジマ,-,足立区神明南２丁目２番６号,-,-,-,3,,35.789237,139.832085
206,株式会社ＪＯＹ,-,足立区鹿浜１丁目１９番１０−２０３号,不動産、レンタル・リース,-,-,1,,35.776167,139.748476
207,株式会社はつ花,-,足立区西新井６丁目４３番４号,-,-,-,5,,35.780529,139.776124
208,株式会社セルビス,-,足立区中央本町３丁目１２番１−１０１４号,-,-,-,1,,35.772271,139.808058
209,有限会社備長亭,-,足立区東和２丁目１８番３号,-,-,-,,,35.768813,139.841969
210,有限会社トーヨーサービス,-,足立区六木３丁目１８番８号２０５号室,-,-,-,,,35.797245,139.842774
211,有限会社ラスティング・サポート,-,足立区綾瀬６丁目１３番１７−３０２号,-,-,-,,,35.77093,139.826063
212,株式会社うわ,-,足立区六木１丁目１番８号,メーカー,-,-,,,35.791125,139.837839
213,株式会社エー・シー・ティー,-,足立区千住曙町４１番１−２２０５号,-,-,-,,,35.741828,139.814018
214,ティエヌケイ株式会社,菅原秀人,足立区東和５丁目８番１６号,建設,http://www.tnk-ltd.jp/,03-5697-7001,26,,35.775235,139.838226
215,東陸運輸株式会社,-,足立区東保木間２丁目１６番４号,運輸・倉庫関連,-,-,,,35.792872,139.813541
216,マルシン工業株式会社,渡辺猛彦,足立区西新井７丁目１９番１２号,商社,http://www.marushin-helmet.co.jp/,03-3693-5791,,,35.780571,139.771587
217,株式会社ヤマソーコーポレーション,-,足立区南花畑４丁目２３番５号,建設,-,03-5680-1880,2,,35.796992,139.819152
218,朝日工業株式会社,伊原敏男,足立区本木東町２６番１４号,建設,http://www.asahione.co.jp/,03-3840-7211,60,,35.766115,139.782345
219,朝日製凾株式会社,-,足立区古千谷本町１丁目６番３２号,メーカー,-,-,1,,35.802527,139.775001
221,足立工事サービス株式会社,-,足立区西伊興３丁目１８番１９号,不動産、レンタル・リース,-,03-3856-1620,,,35.798353,139.777356
222,足立市街地開発株式会社,-,足立区日ノ出町２７番３号棟１０２号,不動産、レンタル・リース,http://www1.ocn.ne.jp/~aud/,03-3879-1661,10,,35.753521,139.810519
224,株式会社足立ナチュラル,-,足立区梅島１丁目１９番１０号,-,-,-,,,35.772496,139.800703
225,株式会社アオイ建築設計亊務所,-,足立区西伊興３丁目３番２４号,サービス,-,-,5,,35.798353,139.777356
226,アイ・エム・ケー株式会社,吉野英恵,足立区千住橋戸町１番地５３,医療・福祉,-,03-3879-5041,,,35.740193,139.797811
227,株式会社青木工業所,青木竜一,足立区北加平町２０番５号,建設,-,03-3606-3301,6,,35.784064,139.828437
228,株式会社青木製作所,-,足立区花畑２丁目９番１２号,メーカー,-,-,4,,35.801817,139.817021
229,アイ・ティー・シー株式会社,-,足立区千住中居町２９番−４号,-,-,-,,,35.749437,139.79773
230,株式会社相田ゴム,-,足立区佐野１丁目２１番１１号,-,-,-,,,35.787173,139.843499
231,株式会社アートレーザー吉田,-,足立区谷在家３丁目２１番１８号,-,-,-,,,35.788807,139.768057
232,株式会社アーバン警備,-,足立区千住３丁目６番地,-,-,-,34,,35.751635,139.802709
233,株式会社愛和,-,足立区島根３丁目３番３号,サービス,-,-,,,35.779603,139.794499
234,株式会社アンク,逢澤純一郎,足立区栗原３丁目２０番１号,-,http://www.ankh-jet.co.jp/,-,,,35.780269,139.785368
235,株式会社アコード,-,足立区栗原２丁目４番２号,建設,-,-,4,,35.783516,139.789158
236,株式会社アクティブ,-,足立区中央本町４丁目１１番１９号,建設,-,-,,,35.775434,139.808267
237,阿久津食品株式会社,阿久津隆,足立区千住河原町３５番１４号,商社,http://tamago-akutsu.com/,03-3881-7191,7,,35.743103,139.798787
238,茜商事株式会社,-,足立区日ノ出町２５番６号オフイス２１,-,-,-,,,35.753521,139.810519
240,安全警備保障株式会社,-,足立区谷中３丁目７番１２号,サービス,-,-,,,35.779211,139.834924
241,芦川商事株式会社,-,足立区南花畑３丁目１８番８号,小売,-,-,3,,35.792441,139.824996
242,株式会社アズマ,-,足立区保木間３丁目２０番６号,-,-,-,,,35.796447,139.806375
243,アジマ製薬株式会社,矢島誠次,足立区扇１丁目４６番１０号,建設,http://www.ajimaseiyaku.co.jp/kaisyaannnai.htm,-,2,,35.762366,139.774261
244,株式会社安城製作所,-,足立区本木２丁目８番６号,建設,-,03-3849-6877,15,,35.767596,139.785349
245,株式会社アディスミューズ,代表取締役 高橋 拓也,足立区南花畑１丁目１５番１６号,建設,http://www.addismuse.co.jp/,-,114,,35.787716,139.82441
246,株式会社アド・シュール,-,足立区千住東２丁目１番２号,-,-,-,,,35.745471,139.808241
248,株式会社アベ,-,足立区梅島３丁目３２番２５−１１０１号,-,-,-,,,35.775806,139.794888
249,株式会社アヤセ鋼板センター,-,足立区北加平町９番１号,メーカー,-,-,31,,35.784064,139.828437
250,株式会社アロー・エンジニアリング,-,足立区綾瀬３丁目２１番１６号,情報・通信,-,-,8,,35.764004,139.826444
251,株式会社荒井製作所,-,足立区梅田６丁目２１番２０号,商社,-,-,,,35.768341,139.79706
252,アルク企画株式会社,宮本正則,足立区西綾瀬３丁目３１番１１号デルタ五反野１０１,建設,-,03-5681-8341,11,,35.764148,139.816971
253,株式会社アルフア,代表取締役 桐生 勇,足立区足立４丁目１３番９号,建設,-,-,10,,35.766192,139.805789
254,飯田土地建設株式会社,飯田修一,足立区谷在家１丁目３番９号,建設,-,03-5837-5215,2,,35.786648,139.771071
255,株式会社池田工芸,-,足立区関原２丁目２２番４号,サービス,-,-,3,,35.766962,139.789046
256,石井紙工株式会社,-,足立区東綾瀬３丁目９番１４号,-,-,-,,,35.770916,139.833559
257,株式会社イシカワ,石川忠,足立区一ツ家４丁目４番９号,建設,http://www.ishikawa-co.jp/,03-3885-8921,2,,35.780235,139.817408
258,株式会社いすゞ電話店,-,足立区梅島２丁目２番１０号,-,-,-,,,35.77665,139.800335
259,株式会社石塚不動産,-,足立区栗原１丁目１２番１８号,不動産、レンタル・リース,-,03-3859-5044,1,,35.780414,139.789422
260,磯部産業株式会社,-,足立区皿沼３丁目２７番１６号,-,-,-,,,35.794327,139.766861
261,株式会社伊勢政商店,-,足立区梅田５丁目２５番１７号,-,-,-,,,35.769298,139.794037
263,株式会社イトーキ,-,足立区扇１丁目５０番１２号,商社,-,-,1,,35.762366,139.774261
264,株式会社イトウ設備,-,足立区梅田７丁目９番１号,-,-,-,,,35.769553,139.800673
265,一新建設株式会社,酒井力,足立区綾瀬４丁目１７番１３号,建設,http://www.issin-k.net/,03-3850-6370,12,,35.765351,139.822318
266,株式会社一ノ関工業,一関武,足立区日ノ出町４１番１２号,建設,-,03-3888-1339,11,,35.753521,139.810519
267,市橋物産株式会社,-,足立区保木間１丁目３４番５号,-,-,-,1,,35.790538,139.806494
268,市村産業株式会社,市村智,足立区関原１丁目１番１０号,サービス,http://ichimura-ind.co.jp/,03-3840-0381,16,,35.761855,139.789455
269,株式会社一らく,-,足立区千住旭町１３番９号,-,-,-,,,35.748874,139.80716
270,株式会社イマイ,-,足立区花畑３丁目２３番４号,-,-,-,,,35.803676,139.81266
271,岩井建設株式会社,-,足立区伊興３丁目６番８号,建設,-,-,,,35.793973,139.785411
272,株式会社岩島貴金属,-,足立区西加平２丁目３番１０号,サービス,-,-,0,,35.780116,139.820017
273,株式会社岩間工務店,岩間哲也,足立区弘道２丁目２７番２号,建設,-,03-3889-7007,1,,35.768347,139.818147
274,株式会社入谷工業,-,足立区入谷５丁目１５番１１号,建設,-,-,3,,35.803842,139.762302
275,株式会社ウイングクリエイティブエージェンシー,-,足立区小台１丁目５番３−３１８号,サービス,http://www.businessprint.jp,-,1,,35.755444,139.771557
276,ＦＵＪＩＴＥ　ＴＲＡＤＩＮＧ株式会社,-,足立区江北６丁目３番３号,-,-,-,1,,35.780864,139.767539
277,ウチキ食品株式会社,打木義久,足立区中川５丁目１４番１３号,商社,http://www.e-tsukudani.com/,03-3606-0155,,,35.774962,139.849435
278,株式会社リバーサイド北千住,-,足立区千住大川町５番１０号,不動産、レンタル・リース,-,-,0,,35.757149,139.79809
279,ウッド・ベル・プランニング株式会社,-,足立区西綾瀬２丁目１１番１６号,-,-,-,,,35.763724,139.814163
280,東京パッセンジャー株式会社,笹倉茂樹,足立区保木間１丁目８番１７号,運輸・倉庫関連,http://www.tokyo-passenger.co.jp/,03-5686-6221,26,,35.790538,139.806494
281,梅島商事株式会社,-,足立区梅島１丁目１６番１８号,-,-,-,,,35.772496,139.800703
282,株式会社宇山電業社,-,足立区江北２丁目２９番３号,建設,-,03-3856-2511,0,,35.768191,139.763191
283,株式会社エイ・オー・エス,-,足立区保木間１丁目２番７−１０９号,-,-,-,,,35.790538,139.806494
284,エース株式会社,-,足立区千住１丁目４番１−１２１０号,-,-,-,,,35.747835,139.801407
286,株式会社栄大紙器,-,足立区梅田５丁目６番１４号,メーカー,-,-,2,,35.769298,139.794037
287,株式会社エコーハウス,-,足立区竹の塚５丁目１６番７号,不動産、レンタル・リース,-,03-3850-3197,2,,35.795687,139.796115
288,エクセルトレィディング株式会社,-,足立区栗原３丁目９番２号,商社,http://www.exel.co.jp/toppage.j.html,03-3889-0220,7,,35.780269,139.785368
290,エスティワイ株式会社,佐々木謙一,足立区花畑６丁目１２番４−２０４号,-,-,03-6426-2805,1,,35.805748,139.817971
291,エフ・ユーリース工業株式会社,-,足立区綾瀬２丁目３１番９号,-,-,-,,,35.759926,139.828332
292,エムトゥケイ株式会社,-,足立区鹿浜２丁目２３番７号,-,-,-,,,35.781856,139.747084
293,株式会社大石商店,-,足立区足立４丁目１４番１号,-,-,-,,,35.766192,139.805789
294,株式会社扇企画,-,足立区扇２丁目４６番８号扇企画ビル３０１,不動産、レンタル・リース,-,03-5838-7760,3,,35.763224,139.765885
295,大杉産業株式会社,-,足立区皿沼１丁目２２番９号,商社,-,-,1,,35.793395,139.762847
296,王子段ボール株式会社,渡辺直喜,足立区新田２丁目１６番３号,商社,http://www.oji-dan.jp/,03-3911-5127,17,,35.772706,139.741102
297,株式会社大澤塗装店,大澤俊彦,足立区西新井本町２丁目２１番２１号,建設,-,03-3898-3861,,,35.775826,139.772349
298,株式会社大滝,-,足立区西新井本町２丁目１２番１１号,サービス,http://www.e-ootaki.co.jp/,-,443,,35.775826,139.772349
299,株式会社大谷総本店,-,足立区千住仲町１１番１３号,商社,-,-,2,,35.744983,139.800544
301,株式会社大和田テレビ,大和田信一,足立区西新井２丁目４番６号,小売,https://www.owada-tv.com/,03-3890-2722,2,,35.784381,139.781432
302,株式会社置栖製作所,-,足立区梅島１丁目６番２０号,商社,-,03-3886-6956,0,,35.772496,139.800703
303,奥田商事株式会社,-,足立区東六月町５番２４号,商社,-,-,1,,35.787524,139.806009
304,岡野自動車興業株式会社,-,足立区入谷８丁目１２番２６号,サービス,-,-,3,,35.805268,139.755999
305,荻原建設工業株式会社,荻原好之,足立区舎人１丁目２０番６号,建設,-,03-3855-6201,3,,35.807249,139.770704
306,奥山工業株式会社,-,足立区鹿浜３丁目３１番２０号,-,-,-,,,35.781121,139.753482
307,小倉建設株式会社,小倉英樹,足立区保木間２丁目６番２０号,建設,http://www.oguken.jp/,03-3850-2222,18,,35.793455,139.806234
308,押関商事株式会社,-,足立区江北７丁目２４番８号,-,-,-,,,35.780768,139.763566
309,落合テント株式会社,彼島純,足立区東保木間２丁目３４番１０号,小売,https://ochiaitent.com/,-,7,,35.792872,139.813541
311,小野金属工業株式会社,-,足立区東伊興３丁目１４番７号,-,-,-,,,35.801544,139.791922
312,オフィスサポート株式会社,松岡博行,足立区日ノ出町２５番６号,情報・通信,http://www.officesupport.co.jp,-,2,,35.753521,139.810519
314,オリエント通商株式会社,-,足立区鹿浜４丁目１５番５号,-,-,-,,,35.781259,139.758237
316,華華貿易株式会社,-,足立区島根４丁目２７番１号,-,-,-,,,35.782985,139.79454
317,株式会社加賀煉萬,-,足立区加賀２丁目１７番５号１Ｆ,建設,-,-,2,,35.792695,139.760153
318,春日解体工業株式会社,昌本英明,足立区梅田７丁目１５番４号梅島コーポ１０１号,建設,-,03-3848-1871,,,35.769553,139.800673
319,株式会社ＫＡＺＵＮＡＲＩ,-,足立区興野２丁目１８番４号,建設,-,-,0,,35.768833,139.777366
320,一三建設株式会社,-,足立区西新井本町５丁目５番１３号,-,-,-,,,35.773892,139.783153
321,株式会社片野商店,-,足立区扇１丁目５５番９号,サービス,-,03-3897-1035,6,,35.762366,139.774261
322,金子建設工業株式会社,金子俊二,足立区東伊興２丁目２番１号,建設,http://www.ka-ne-ken.com/,03-5837-8550,35,,35.80521,139.7882
323,株式会社金杉工芸,金杉栄冶,足立区花畑３丁目２９番１４号,メーカー,https://www.kana-print.co.jp/,-,20,,35.803676,139.81266
324,株式会社カネテツ,阿部正二,足立区入谷９丁目５番１０号,商社,http://www.kane-tetsu.co.jp,03-3899-1100,9,,35.809011,139.754661
325,株式会社荷峰堂,吉弘隆,足立区鹿浜３丁目１９番１６号,建設,http://www.kaho-do.com,03-3857-5346,1,,35.781121,139.753482
326,株式会社カミムラ,-,足立区大谷田５丁目７番１１号,小売,-,-,5,,35.78373,139.839345
327,株式会社カメラのタカギ,-,足立区竹の塚１丁目４１番１号,小売,http://www.kameranotakagi.com,-,2,,35.790869,139.791713
328,株式会社川一,-,足立区舎人５丁目１３番３号,-,-,-,,,35.811593,139.767983
329,鹿島興業株式会社,-,足立区東綾瀬２丁目１番８号,-,-,-,,,35.767486,139.831897
330,株式会社川西,-,足立区千住１丁目２０番１２号,-,-,-,,,35.747835,139.801407
331,河原実業株式会社,河原勇司,足立区青井１丁目１３番１２号,小売,http://www.kawahara-jitsugyou.com/,03-3849-4411,635,,35.774083,139.812714
332,共和運送株式会社,-,足立区千住東１丁目２２番３号,運輸・倉庫関連,-,-,1,,35.745027,139.804524
333,協和機器株式会社,-,足立区花畑２丁目１５番２号,-,-,-,,,35.801817,139.817021
334,協和産業株式会社,-,足立区江北４丁目３２番１０号,商社,-,-,3,,35.773847,139.766786
335,協和ポリ株式会社,-,足立区綾瀬７丁目１３番１２号,商社,-,03-3606-1171,3,,35.773905,139.826534
336,菊電システム株式会社,菊地英夫,足立区鹿浜２丁目３２番１２号,建設,-,03-3897-8865,1,,35.781856,139.747084
337,株式会社菊吉,-,足立区千住緑町３丁目１０番１号,メーカー,http://y-kikuyoshi.co.jp,03-3870-3621,2,,35.747166,139.79246
338,株式会社北足立千銀,-,足立区入谷６丁目３番１号,商社,-,-,9,,35.799367,139.765288
339,株式会社北川製作所,-,足立区千住緑町１丁目２３番１号,メーカー,-,-,2,,35.742577,139.792502
340,株式会社機電サービス,石井日出徳,足立区入谷７丁目６番３号,商社,http://www.kdn-sv.co.jp,03-3897-1111,38,,35.799945,139.760376
341,株式会社きのした,木下勝世志,足立区千住１丁目４番１号,商社,https://puffoods.jp/,03-3881-6758,58,,35.747835,139.801407
342,株式会社木村工務店,木村敦,足立区加平３丁目６番６号,建設,http://www.kafco.info/,-,6,,35.780082,139.82902
344,共栄テクノ株式会社,中村行宏,足立区千住１丁目４番１号東京芸術センター１８Ｆ１８１０号室,建設,http://www.techno-kyoei.co.jp,03-3882-0050,7,,35.747835,139.801407
345,協設工業株式会社,-,足立区六月１丁目２６番１７号,建設,-,-,0,,35.78691,139.800232
347,株式会社恭祐,-,足立区花畑３丁目５番３−１０４号,メーカー,-,-,3,,35.803676,139.81266
348,株式会社キャッスル,-,足立区保木間２丁目２６番８号,-,-,-,0,,35.793455,139.806234
349,株式会社ギャラリー工藤,-,足立区大谷田１丁目３６番１−４１２号,建設,-,-,,,35.77854,139.846903
350,桐生レミコン株式会社,-,足立区綾瀬３丁目３番１０号,その他,-,03-3628-7221,15,,35.764004,139.826444
351,株式会社國貞,鈴木進吾,足立区六木４丁目５番２９号,商社,https://www.kuni-sada.co.jp/,03-3629-7111,79,,35.795981,139.838221
353,株式会社クマガイ,-,足立区千住東２丁目２０番１１号,商社,-,03-3881-1758,4,,35.745471,139.808241
354,株式会社隈田組,隈田英司,足立区南花畑４丁目２５番７号ドエル・マルクマ２０２,建設,-,03-3885-3345,41,,35.796992,139.819152
355,株式会社クルーディー,-,足立区梅島２丁目１７番２−２０２号,-,-,-,1,,35.77665,139.800335
356,株式会社グループエイトワン,-,足立区鹿浜５丁目２１番１５号,運輸・倉庫関連,-,-,,,35.785595,139.754383
357,グリーンフラスコ株式会社,-,足立区千住河原町１１番５号林方,商社,http://www.greenflask.com,-,1,,35.743103,139.798787
358,株式会社倉澤硝子店,-,足立区西新井７丁目８番８号,商社,-,-,1,,35.780571,139.771587
359,株式会社ケー・アンド・エスコーワ,-,足立区堀之内２丁目１２番１１号,メーカー,-,-,5,,35.775663,139.758039
360,株式会社ケアフレンド,門脇宣世,足立区梅島１丁目１３番１７号,医療・福祉,http://www.carefriend.co.jp/,-,65,,35.772496,139.800703
361,高栄建設株式会社,-,足立区六町３丁目５番５号,-,-,-,,,35.785898,139.818488
363,光生商事株式会社,-,足立区西竹の塚２丁目４番２１号,-,-,-,,,35.796069,139.789875
364,株式会社アオイ,武井純一,足立区一ツ家４丁目４番１４号,商社,https://aoi-pharmacy.com/,03-3858-3811,13,,35.780235,139.817408
365,河野ブレーキ工業株式会社,-,足立区佐野２丁目２５番９号,商社,-,-,15,,35.787565,139.838744
366,荒北運送株式会社,-,足立区舎人５丁目２２番２１号,運輸・倉庫関連,-,-,1,,35.811593,139.767983
367,弘和印刷株式会社,瀬田章弘,足立区本木南町１５番１７号,メーカー,http://www.kowax.jp/,03-3880-6446,17,,35.760899,139.781737
368,紅陵通信工業株式会社,-,足立区島根１丁目５番２１号,-,-,-,,,35.77926,139.799926
369,国際機工株式会社,-,足立区綾瀬６丁目１７番７号,商社,-,-,,,35.77093,139.826063
370,小勝工務店株式会社,小勝伸太郎,足立区西竹の塚２丁目３番１５号,建設,-,03-3899-1075,5,,35.796069,139.789875
371,株式会社紺蔵設計,石鍋元章,足立区六月２丁目１２番２号,サービス,http://www.concra.co.jp/sekkei_top.htm,03-3850-7121,5,,35.786418,139.795161
372,株式会社コスモウエイブ,-,足立区千住２丁目６５番地,-,-,-,,,35.74958,139.801967
373,株式会社コスモメディカル,富井武敏,足立区扇１丁目２４番１６号,商社,http://www.cosmo-medical.co.jp/,03-3890-8211,27,,35.762366,139.774261
374,株式会社後藤造園,代表取締役 後藤 誉夫,足立区栗原２丁目１４番７号,建設,-,03-3885-9719,16,,35.783516,139.789158
376,株式会社寿,-,足立区平野１丁目１７番２５号,メーカー,-,-,,,35.779852,139.805621
377,寿総業株式会社,-,足立区中央本町３丁目１１番１８号,-,-,-,,,35.772271,139.808058
378,小沼電機株式会社,-,足立区東和４丁目１８番１２号,建設,-,03-3629-4440,3,,35.773291,139.841935
380,株式会社小早川運輸,小早川貞一郎,足立区花畑８丁目７番１０号,サービス,http://www.kohayakawa.co.jp/,03-3884-1546,63,,35.811659,139.822854
381,小林電設株式会社,小林清見,足立区興野１丁目１番１２号,建設,-,03-3889-7807,3,,35.769563,139.782365
382,小宮山油圧工業株式会社,-,足立区梅島３丁目７番８号,商社,http://www.komiyama-yuatsu.co.jp,03-3848-3631,3,,35.775806,139.794888
383,こやま建設株式会社,-,足立区入谷３丁目２番１号,-,-,-,,,35.81061,139.76091
384,サンワミー株式会社,-,足立区扇１丁目１６番７号,-,-,-,,,35.762366,139.774261
385,三栄工業株式会社,岩渕亮次,足立区神明２丁目８番２５号,建設,-,03-3605-6504,9,,35.79429,139.835124
386,株式会社ザアート,大久保貞二,足立区綾瀬６丁目３９番１１号,小売,http://www.pandagroup.jp/company.html,-,5,,35.77093,139.826063
387,株式会社彩華,-,足立区島根２丁目２２番６号,教育・研究,-,-,3,,35.782287,139.800268
388,株式会社三枝エステート,-,足立区足立３丁目２５番６号,-,-,-,3,,35.763981,139.810429
389,西伸工業株式会社,佐々木久禎,足立区青井４丁目１７番１３号,建設,-,03-3852-2581,6,,35.774982,139.819686
390,株式会社サイトーグラフイックアーツ,-,足立区興野１丁目１０番１３号,メーカー,-,-,11,,35.769563,139.782365
391,三恵株式会社,-,足立区東伊興３丁目２２番１号,商社,-,-,,,35.801544,139.791922
392,株式会社佐高工務店,-,足立区西加平２丁目７番５号,建設,-,-,,,35.780116,139.820017
393,三晃繊維工業株式会社,-,足立区千住東２丁目３番９号,商社,-,03-3888-4133,28,,35.745471,139.808241
394,株式会社さかい,-,足立区綾瀬２丁目２９番１２号さかいビル２階,商社,-,-,17,,35.759926,139.828332
395,株式会社サン興流通,-,足立区保木間１丁目２８番１５号,-,-,-,,,35.790538,139.806494
396,株式会社燦企画,-,足立区小台２丁目３９番１１号,サービス,-,-,2,,35.758417,139.759615
397,坂商株式会社,-,足立区綾瀬６丁目７番１７号,商社,-,03-3629-5175,1,,35.77093,139.826063
398,株式会社三急運輸,野山貴裕,足立区神明１丁目１０番１５号,運輸・倉庫関連,http://www.san-kyu.co.jp,03-3620-3355,39,,35.792802,139.829402
399,産業サービス株式会社,-,足立区綾瀬１丁目３３番１４号アークステージ綾瀬４０３,-,-,-,,,35.758847,139.822005
400,三共テクニカル株式会社,-,足立区千住元町３６番５号,メーカー,-,-,,,35.756114,139.791734
401,株式会社崎山製作所,-,足立区舎人５丁目２９番１９号,メーカー,-,-,2,,35.811593,139.767983
402,桜田開発株式会社,-,足立区東綾瀬２丁目１４番２４号,-,-,-,,,35.767486,139.831897
403,佐々木ケアサービス株式会社,粟田惠美子,足立区足立４丁目３７番１１号,不動産、レンタル・リース,http://www.magonote.com/,03-3848-7151,87,,35.766192,139.805789
404,株式会社ササキビルド,佐々木東,足立区西伊興３丁目１８番２３号,建設,-,03-3855-2045,2,,35.798353,139.777356
405,株式会社サンデン,山田正明,足立区江北７丁目８番３号,建設,-,03-3890-3131,4,,35.780768,139.763566
406,株式会社佐藤金銀店,-,足立区千住宮元町１６番１３号,商社,-,-,23,,35.746798,139.796199
407,三東新建設株式会社,-,足立区足立１丁目２０番５号,-,-,-,1,,35.761522,139.805576
408,ザットセキュリティサービス株式会社,-,足立区千住２丁目５番地第３小泉ビル２階,-,-,-,1,,35.74958,139.801967
410,株式会社三豊商店,-,足立区千住橋戸町５０番地,-,-,-,4,,35.740193,139.797811
411,株式会社サン・ハマノ,-,足立区竹の塚３丁目５番１８号,-,-,-,,,35.790758,139.800143
412,株式会社さんゆう,-,足立区鹿浜３丁目１１番９号,-,-,-,,,35.781121,139.753482
413,三友工業株式会社,松本幸雄,足立区西新井６丁目２４番１１号,建設,-,03-3890-2541,,,35.780529,139.776124
414,三洋紙業株式会社,齊田守,足立区西伊興３丁目１５番２５号,メーカー,http://www.sanyoshigyo.com/,03-3897-7181,45,,35.798353,139.777356
415,株式会社サンリード茨城,-,足立区入谷７丁目１８番２３号,-,-,-,,,35.799945,139.760376
416,佐和工業株式会社,佐野和弥,足立区中川４丁目３６番３号,建設,-,03-3605-1420,1,,35.771442,139.846681
417,三立産業株式会社,-,足立区西新井６丁目２４番４号,-,-,-,,,35.780529,139.776124
418,昭和倉庫株式会社,矢部達也,足立区入谷９丁目２２番１７号,運輸・倉庫関連,http://i-love-ssc.co.jp/,03-3855-5241,31,,35.809011,139.754661
419,みつ・ひのもと株式会社,-,足立区東綾瀬２丁目１１番１２号,-,-,-,,,35.767486,139.831897
420,株式会社シーセカンド,佐賀久芳,足立区千住３丁目３６番地,サービス,http://www.c-second.com/,-,12,,35.751635,139.802709
421,株式会社シートピア,-,足立区本木１丁目２３番６号,-,-,-,,,35.761206,139.785729
422,新成産業株式会社,-,足立区小台２丁目３８番２２号,-,-,-,,,35.758417,139.759615
423,株式会社システムメンテナンス,-,足立区東和４丁目１６番３号,-,-,-,,,35.773291,139.841935
424,新太陽興業株式会社,-,足立区大谷田４丁目１９番１８号,-,-,-,,,35.778912,139.838128
425,株式会社新千葉工務店,-,足立区舎人４丁目５番１６号,建設,-,-,,,35.816555,139.767733
426,新日本空調エンジニアリング株式会社,-,足立区西新井５丁目１３番８号,情報・通信,-,-,,,35.784404,139.775653
427,株式会社新日本製袋,-,足立区小台２丁目４６番１１号,小売,-,-,44,,35.758417,139.759615
428,芝園開発株式会社,海老沼孝二,足立区千住３丁目６６番地１６,建設,https://www.sibazono.co.jp/,03-3870-0041,339,,35.751635,139.802709
430,清水金商株式会社,-,足立区千住龍田町１６番９号,商社,-,03-3881-8411,1,,35.75121,139.795375
431,株式会社シミズローディック,清水幸治,足立区古千谷本町４丁目６番１１号,建設,-,03-3899-9901,18,,35.80647,139.780199
432,株式会社島津製作所,-,足立区千住緑町３丁目２１番７号,商社,-,-,,,35.747166,139.79246
433,下山畜産株式会社,下山好夫,足立区入谷７丁目１番１５号,商社,http://shimochiku.co.jp,03-3897-6101,31,,35.799945,139.760376
434,株式会社ジョイ,-,足立区南花畑１丁目１３番５号,-,-,-,,,35.787716,139.82441
435,昭栄興産株式会社,-,足立区本木１丁目５番１７号,-,-,-,,,35.761206,139.785729
436,秤栄産業株式会社,-,足立区興野２丁目３１番４７号,-,-,-,,,35.768833,139.777366
437,上州電工株式会社,-,足立区梅島１丁目２４番１７号,-,-,-,,,35.772496,139.800703
438,株式会社大谷田興業,-,足立区大谷田５丁目１３番１号,-,-,-,,,35.78373,139.839345
439,株式会社ジョイント工業,森ふみ子,足立区西伊興２丁目２番１３号,商社,http://www.ashiba-pipe.com/,03-3854-1111,7,,35.794578,139.7766
440,株式会社城北計器製作所,-,足立区足立２丁目１０番１１号,-,-,-,,,35.758779,139.81049
441,株式会社城北手袋工業,-,足立区竹の塚７丁目１１番２号,商社,-,03-3858-4521,1,,35.799834,139.79521
442,昭文堂事務機株式会社,-,足立区島根３丁目７番６号,商社,-,03-3859-3167,7,,35.779603,139.794499
443,株式会社ジャックコーポレーション,-,足立区千住１丁目１番８号,-,-,-,,,35.747835,139.801407
444,リフォームジャパン株式会社,-,足立区西新井栄町２丁目１７番１２号,サービス,-,-,,,35.7766,139.788031
445,株式会社ジヤム,-,足立区大谷田３丁目１番１号,-,-,-,,,35.778755,139.841164
446,株式会社伸和,-,足立区梅田７丁目１５番１３号,-,-,-,0,,35.769553,139.800673
447,株式会社白石組,白石正信,足立区西伊興２丁目７番６号,建設,-,03-3855-1805,10,,35.794578,139.7766
448,株式会社白木会計,-,足立区栗原３丁目１０番１４号,-,-,-,,,35.780269,139.785368
449,神和産業株式会社,-,足立区中央本町４丁目２４番１号,商社,-,-,,,35.775434,139.808267
450,株式会社スエヒロ,代表取締役 道畑 仁志,足立区綾瀬５丁目２４番５号,建設,http://www.119suehiro.co.jp/,03-3606-0119,93,,35.767511,139.826795
451,杉浦自動車株式会社,-,足立区堀之内２丁目１４番７号,サービス,-,03-3897-7721,1,,35.775663,139.758039
452,株式会社マルス,-,足立区柳原１丁目１８番１３号,建設,-,-,2,,35.745585,139.815065
453,株式会社菅沼電機商会,菅沼康,足立区梅田７丁目２１番１０号,建設,-,03-3849-7511,3,,35.769553,139.800673
454,株式会社鈴木製作所,鈴木孝昌,足立区青井３丁目３２番１８号,メーカー,http://www.co-suzuki-ss.co.jp/,-,4,,35.771768,139.819242
455,株式会社鈴木電工舎,鈴木衛寿,足立区江北４丁目２６番６号,建設,-,03-3898-8685,2,,35.773847,139.766786
456,株式会社鈴木表具店,-,足立区南花畑２丁目３４番２０号,建設,-,-,1,,35.790927,139.819521
457,株式会社鈴重商店,-,足立区千住１丁目２２番９号,-,-,-,1,,35.747835,139.801407
458,すばる交通株式会社,森崇,足立区入谷７丁目１６番２３号,不動産、レンタル・リース,http://www.subaru-t.co.jp/,03-3857-6001,23,,35.799945,139.760376
459,株式会社盛運堂,-,足立区南花畑４丁目２７番１４号,-,-,-,,,35.796992,139.819152
460,成興物産株式会社,寺沢浩次,足立区東伊興３丁目２４番２２号,建設,-,03-3897-4643,3,,35.801544,139.791922
461,千印青果株式会社,井出欽一,足立区入谷６丁目３番１号,商社,-,-,25,,35.799367,139.765288
462,誠和石油株式会社,-,足立区竹の塚３丁目６番５号,-,-,-,,,35.790758,139.800143
463,株式会社正和ホーム,-,足立区中央本町３丁目１１番１５号,-,-,-,,,35.772271,139.808058
464,株式会社関口運輸,関口心太,足立区東綾瀬１丁目２９番１９号,不動産、レンタル・リース,-,03-3620-1200,30,,35.764485,139.832352
465,株式会社関製作所,-,足立区千住大川町３３番１０号,商社,-,-,2,,35.757149,139.79809
466,関プラスチック工芸株式会社,関信弘,足立区入谷９丁目１番１号,商社,https://www.seki-pla.co.jp/,-,14,,35.809011,139.754661
467,株式会社セスコ,新島清志,足立区東伊興１丁目１６番６号,建設,http://sesco.co.jp/,03-3857-0448,35,,35.803208,139.784031
468,セドリツクシューズ株式会社,-,足立区伊興３丁目１９番７号,-,-,-,,,35.793973,139.785411
469,株式会社セフテイーライフ,-,足立区千住曙町４１番地３−３０３号,-,-,-,,,35.741828,139.814018
470,株式会社創工務所,-,足立区西伊興１丁目１３番２２号,-,-,-,1,,35.792396,139.77469
471,株式会社総合会計社,-,足立区梅田８丁目１２番７−７０６号,-,-,-,2,,35.772921,139.795128
473,添田建設株式会社,添田豊,足立区鹿浜６丁目２７番１１号,建設,-,03-3899-1484,2,,35.786345,139.759033
474,園田金属工業株式会社,-,足立区梅島３丁目１６番１３号,-,-,-,,,35.775806,139.794888
475,株式会社ソルテック,-,足立区柳原１丁目２２番２９号,-,-,-,,,35.745585,139.815065
476,大和電設株式会社,-,足立区舎人２丁目１４番２１号,建設,-,-,,,35.811296,139.771662
477,株式会社第一エコー電化,-,足立区六木３丁目４５番１２号,メーカー,-,-,22,,35.797245,139.842774
478,株式会社第一スタジオ,柴嶺広和,足立区入谷９丁目６番１３号,建設,http://www.dai1studio.net/,03-3899-2267,6,,35.809011,139.754661
479,第一輸送株式会社,代表取締役 五十嵐 和代,足立区加賀１丁目１２番９号,サービス,http://igarashisyoukai.co.jp/daiichi/,03-3855-0188,52,,35.788745,139.758953
480,株式会社大協,栗原実,足立区西竹の塚２丁目２番１１号,メーカー,-,-,19,,35.796069,139.789875
481,株式会社大扇,-,足立区中央本町４丁目１０番２号,建設,-,-,,,35.775434,139.808267
482,大壮運輸株式会社,-,足立区入谷５丁目６番１４号,運輸・倉庫関連,-,-,,,35.803842,139.762302
483,大成産業株式会社,徐水正雄,足立区西新井本町１丁目２番２号,建設,http://www.taiseisa.co.jp/,03-5838-7661,16,,35.77579,139.779365
484,株式会社大真化成,-,足立区花畑１丁目１４番１号,-,-,-,,,35.799723,139.812801
485,大三商事株式会社,小倉英樹,足立区保木間２丁目６番２０号,不動産、レンタル・リース,http://www.daisan-syouji.co.jp/,-,6,,35.793455,139.806234
486,株式会社ダイトウ,佐藤敬二,足立区千住緑町３丁目１０番６号,商社,http://www.daitou-gom.co.jp/,-,46,,35.747166,139.79246
487,農業協働社葬儀センター株式会社,-,足立区南花畑４丁目１番１８号,農林水産・鉱業,-,-,,,35.796992,139.819152
489,株式会社大平自動車,-,足立区西保木間３丁目１０番５号,サービス,-,-,1,,35.804266,139.799906
490,株式会社大松,-,足立区千住橋戸町５０番地,商社,-,-,6,,35.740193,139.797811
491,株式会社ダイマル畜産,-,足立区東綾瀬３丁目７番１４号,商社,-,03-3606-0640,3,,35.770916,139.833559
493,大洋電熱株式会社,天河弘典,足立区綾瀬１丁目１８番１４号,メーカー,-,03-3603-0851,41,,35.758847,139.822005
494,ダイヤ交通株式会社,伊藤孝,足立区西保木間３丁目８番２号,不動産、レンタル・リース,http://www.daiya-taxi.jp/,-,3,,35.804266,139.799906
495,株式会社竹内精機製作所,-,足立区島根１丁目１４番１５号,建設,-,03-3883-0776,3,,35.77926,139.799926
496,高木金属工業株式会社,-,足立区西伊興１丁目１番２４号,建設,-,03-3897-5564,3,,35.792396,139.77469
497,タカセ運輸倉庫株式会社,高瀬裕児,足立区伊興２丁目２番３２号,-,http://www.tta-gep.jp/corp/takase-unyusoko/,-,14,,35.792936,139.781086
498,株式会社タカトク,-,足立区鹿浜７丁目１番６号,商社,-,-,,,35.785268,139.763499
499,株式会社武田ゴム商店,-,足立区梅田５丁目１０番４号,商社,-,03-3886-3856,3,,35.769298,139.794037
500,株式会社タカダ電建,-,足立区保木間１丁目１７番７号,-,-,-,,,35.790538,139.806494
501,株式会社高千穗金屬,峰松正人,足立区新田３丁目３２番１０号,メーカー,https://www.takachiho-k.co.jp/,-,4,,35.771394,139.748646
502,高橋印刷荷札株式会社,-,足立区西新井３丁目２０番１２号,商社,-,-,1,,35.788332,139.781409
503,株式会社タカヨシ,-,足立区西新井１丁目２４番６号,金融・保険,-,-,2,,35.78031,139.781021
504,株式会社タカマ化研,-,足立区伊興本町２丁目８番８号,-,-,-,,,35.801178,139.788121
505,株式会社宝オートグラス,-,足立区梅島１丁目２４番２５号,サービス,-,-,5,,35.772496,139.800703
506,株式会社タスト,-,足立区六町３丁目７番１２号ロシュブランＩＩ１０１号室,-,-,-,1,,35.785898,139.818488
508,株式会社田奈加,-,足立区西新井７丁目４番６号,サービス,-,-,3,,35.780571,139.771587
509,株式会社田中建築設計事務所,-,足立区梅田７丁目２５番１３−２０９号,サービス,-,-,15,,35.769553,139.800673
510,株式会社タニグチ,谷口博信,足立区弘道１丁目２８番２号,建設,http://a-one-taniguchi.jp/,-,4,,35.768519,139.812339
512,株式会社田畑紙器,-,足立区皿沼３丁目１６番８号,商社,-,-,5,,35.794327,139.766861
513,株式会社田村屋,-,足立区千住柳町４１番１３号,小売,-,03-3881-2039,1,,35.753791,139.796347
514,チエリーケミカル工業株式会社,-,足立区千住大川町４４番１８号,-,-,-,,,35.757149,139.79809
515,中央ペットフード株式会社,-,足立区西新井７丁目４番１７号,小売,http://www.chuo-pet-food.com/,-,4,,35.780571,139.771587
516,株式会社千代田企画,-,足立区西新井６丁目５番１０号,-,http://www.petit-amour.jp/,-,,,35.780529,139.776124
517,ツカサ運輸株式会社,-,足立区入谷８丁目１４番２号,-,-,-,9,,35.805268,139.755999
518,株式会社土田製作所,-,足立区梅島１丁目７番２号,-,-,-,,,35.772496,139.800703
519,ツノー工業株式会社,-,足立区大谷田５丁目２４番２号,商社,-,03-3606-0638,,,35.78373,139.839345
520,株式会社テクノワールド,田渡喜久,足立区千住仲町１９番６−３０６号,建設,-,03-3896-7220,12,,35.744983,139.800544
521,株式会社テナント建物,八木司,足立区綾瀬３丁目５番１８−１０２号,建設,-,03-3628-2111,0,,35.764004,139.826444
523,東京安全株式会社,-,足立区六木４丁目１番１６号エリール六木２０１,小売,-,-,,,35.795981,139.838221
524,株式会社東京エンゼル本社,石塚健司,足立区大谷田５丁目４番９号,メーカー,http://www.angelgroup.co.jp/,03-3606-7177,103,,35.78373,139.839345
525,東京運輸株式会社,-,足立区関原３丁目１番１４号,-,-,-,,,35.771742,139.788709
526,東京靴材料株式会社,-,足立区千住緑町２丁目３３番２７号,商社,-,03-3870-3911,3,,35.744936,139.792197
527,東京共栄堂株式会社,-,足立区江北２丁目２８番５号,-,-,-,,,35.768191,139.763191
530,株式会社東京光商事,-,足立区鹿浜５丁目１９番２０号,商社,http://www.tokyo-hikari.co.jp,03-3857-1111,15,,35.785595,139.754383
531,東京物産株式会社,-,足立区青井５丁目８番９号,-,-,-,,,35.776999,139.819844
532,株式会社東京リツカ,-,足立区加平１丁目２０番５号,-,-,-,,,35.775903,139.826866
534,株式会社ＴＯＹＯ,毛利正治,足立区西新井栄町３丁目２番８号,建設,http://toyo-co-ltd.com/,03-3852-3311,22,,35.776365,139.783343
535,株式会社東洋ネームプレート製作所,-,足立区千住桜木２丁目４番５号,メーカー,http://www.toyo-name.com,03-3870-1300,18,,35.755361,139.786461
536,株式会社トーイン,-,足立区入谷７丁目１１番１０号,-,-,-,,,35.799945,139.760376
537,株式会社トウコウ,-,足立区柳原２丁目１番７号,-,-,-,,,35.748855,139.813804
538,株式会社東光ワッチ,-,足立区竹の塚５丁目８番１２号,-,-,-,1,,35.795687,139.796115
539,株式会社益子商事,-,足立区加賀１丁目１０番１０号,不動産、レンタル・リース,-,-,0,,35.788745,139.758953
540,株式会社東晋,-,足立区梅島２丁目５番１１号,メーカー,-,-,1,,35.77665,139.800335
541,東新工業株式会社,-,足立区栗原４丁目２２番６号,建設,-,-,,,35.785392,139.785461
542,株式会社東眞水道工務店,真通勝,足立区南花畑３丁目４番２号,建設,-,03-3884-0252,9,,35.792441,139.824996
543,東都コロンブス販売株式会社,-,足立区足立３丁目５番１０号,商社,-,03-3889-3344,7,,35.763981,139.810429
544,株式会社トータルビジネスサービス,苑田輝和,足立区竹の塚４丁目２番１号ＴＢビル５階,商社,http://tb-s.co.jp/tbs/pc.php/top,03-5242-7761,199,,35.793974,139.800052
545,東武ホームズ株式会社,-,足立区千住龍田町１５番１４号,-,-,-,,,35.75121,139.795375
546,當摩建設株式会社,-,足立区竹の塚５丁目１８番８号,不動産、レンタル・リース,-,-,1,,35.795687,139.796115
547,東横建設株式会社,-,足立区西新井７丁目１６番４号,建設,-,-,,,35.780571,139.771587
548,東和工業株式会社,山倉高夫,足立区扇１丁目２４番２４号,建設,-,03-3896-1381,2,,35.762366,139.774261
549,株式会社トカチ,廣澤哲也,足立区千住仲町２７番１６号１１０１,建設,-,03-5244-2005,1,,35.744983,139.800544
550,株式会社トップス,-,足立区堀之内２丁目９番１３号,メーカー,-,-,8,,35.775663,139.758039
551,株式会社利根川産業,利根川満彦,足立区入谷８丁目３番８号,サービス,http://www.tonegawa-s.co.jp/,-,52,,35.805268,139.755999
552,株式会社鳶淺,岡野俊治,足立区関原１丁目９番３号,建設,-,03-3849-0876,1,,35.761855,139.789455
553,株式会社飛田工務店,飛田博晶,足立区鹿浜４丁目２６番２０号,建設,-,03-3897-5794,1,,35.781259,139.758237
554,株式会社富張興業,冨張勉,足立区一ツ家２丁目１３番４号,建設,-,03-3859-9008,2,,35.783317,139.813445
555,株式会社常磐建設,-,足立区綾瀬５丁目１８番５号,-,-,-,,,35.767511,139.826795
556,株式会社内国工事,内田武,足立区千住河原町９番２号,建設,-,03-3881-8650,17,,35.743103,139.798787
557,株式会社ナガオ,-,足立区千住河原町２５番８号,-,-,-,,,35.743103,139.798787
559,長塩産業株式会社,長塩康正,足立区千住龍田町１０番２号,商社,https://www.hanger.jp/,-,,,35.75121,139.795375
560,永島工業株式会社,代表取締役 永島 久緒,足立区日ノ出町１番１号,建設,-,03-3881-1017,2,,35.753521,139.810519
561,長商家具株式会社,-,足立区西伊興４丁目９番１９号,-,-,-,,,35.802893,139.780417
562,株式会社夢空間もぐ,中田孝之,足立区小台２丁目４０番１号,メーカー,http://www.nakadaseika.co.jp/homepage.htm,03-3912-1431,2,,35.758417,139.759615
563,株式会社永野印刷所,-,足立区千住２丁目３９番地,-,-,-,,,35.74958,139.801967
564,株式会社南武,-,足立区西加平２丁目８番９号,-,-,-,,,35.780116,139.820017
565,成晃電設株式会社,宮嶋隆,足立区南花畑１丁目８番１号,建設,-,03-3859-2520,6,,35.787716,139.82441
567,日本クリエイト株式会社,菊池智宏,足立区伊興２丁目５番２１号,サービス,http://www.nippon-create.co.jp/,-,1,,35.792936,139.781086
568,日本マシンパーツ株式会社,-,足立区梅島２丁目１７番２−１０５号,商社,http://www.machineparts.co.jp,03-3840-1870,4,,35.77665,139.800335
569,株式会社新治電機,-,足立区六木４丁目６番７号,-,-,-,2,,35.795981,139.838221
570,西新井相互自動車株式会社,清水始,足立区梅田６丁目９番２８号,不動産、レンタル・リース,http://www.nishiaraisougo.com/,03-3886-2196,106,,35.768341,139.79706
572,日榮食品工業株式会社,-,足立区千住２丁目５番地,商社,-,-,,,35.74958,139.801967
574,日光油化株式会社,-,足立区鹿浜８丁目３０番１０号,-,-,-,,,35.788198,139.763594
575,株式会社ニッサン,-,足立区弘道１丁目４番２０号,不動産、レンタル・リース,-,-,,,35.768519,139.812339
576,日進化成株式会社,小宮山清,足立区千住河原町１１番５号,商社,http://www.nissinkasei.com/,03-3888-1181,31,,35.743103,139.798787
578,日清油脂化学株式会社,-,足立区千住東１丁目１６番７号,-,http://www.adachiseikatsu.com,-,,,35.745027,139.804524
579,日東海藻株式会社,橋田憲章,足立区鹿浜４丁目２８番１１号,商社,http://www.nittoukaisou.jp/,03-3899-0412,27,,35.781259,139.758237
580,日東燃料工業株式会社,赤津正弥,足立区六木１丁目１９番１３号,商社,http://www.nittoh-e.co.jp/,-,135,,35.791125,139.837839
581,日都建設株式会社,上杉廣志,足立区本木２丁目１６番１号,建設,-,03-3849-4666,1,,35.767596,139.785349
582,日南精工株式会社,-,足立区伊興４丁目１９番２４号,-,-,-,,,35.797136,139.784136
583,株式会社ニュースター,-,足立区一ツ家１丁目２１番１３号,サービス,-,03-3858-4155,17,,35.781838,139.809753
584,ニューリアルター株式会社,青木優治,足立区綾瀬２丁目２４番６号,不動産、レンタル・リース,http://nr-2511.com/,03-3838-2511,5,,35.759926,139.828332
585,根岸商事株式会社,-,足立区西伊興４丁目１番２７号,-,-,-,2,,35.802893,139.780417
586,株式会社ノービー印刷,-,足立区千住緑町３丁目６番９号,メーカー,http://www.nobby-p.co.jp,03-3888-6531,0,,35.747166,139.79246
587,株式会社ノザキプランニング,林勇次郎,足立区日ノ出町５番１２号,商社,http://www.nozakipl.com/,03-3881-8285,3,,35.753521,139.810519
588,株式会社野村電線,野村一三,足立区千住曙町５番１１号,商社,http://www.nd-j.co.jp,03-3888-7411,22,,35.741828,139.814018
590,株式会社ハイスター,-,足立区弘道１丁目２２番３号,サービス,-,-,1,,35.768519,139.812339
592,株式会社橋本商店,-,足立区千住東１丁目７番７号,-,-,-,,,35.745027,139.804524
594,花井産業株式会社,-,足立区中央本町４丁目１７番２号,-,-,-,1,,35.775434,139.808267
595,株式会社花坂,-,足立区千住橋戸町５０番地,建設,-,-,2,,35.740193,139.797811
596,花畑運送株式会社,向田寛,足立区佐野２丁目１２番３号,運輸・倉庫関連,-,-,3,,35.787565,139.838744
597,株式会社羽原骨骼標本研究所,-,足立区扇３丁目４番９号,-,-,-,,,35.770022,139.772176
598,株式会社ＳＡＹプロモーション,-,足立区谷中３丁目４番１８号,-,-,-,1,,35.779211,139.834924
599,株式会社早野商店,-,足立区千住橋戸町５０番地,商社,-,03-3879-2715,1,,35.740193,139.797811
600,株式会社ハリカエ,-,足立区千住緑町１丁目２３番３２号,商社,-,03-3881-9141,6,,35.742577,139.792502
601,株式会社ビーアンドエー,-,足立区東綾瀬３丁目５番１６−３０６号,-,-,-,,,35.770916,139.833559
602,光建設株式会社,-,足立区千住元町３６番６号,建設,-,-,,,35.756114,139.791734
603,株式会社光リビング,-,足立区小台２丁目４６番１号,商社,-,03-3927-1061,7,,35.758417,139.759615
604,株式会社ビッグオートアサコ,-,足立区保塚町１２番１号,小売,-,-,0,,35.786674,139.812942
606,株式会社日之出電機製作所,平原和宏,足立区保木間１丁目１８番９号,メーカー,http://www.hinodedenki.co.jp/,-,140,,35.790538,139.806494
607,株式会社兵藤電気工事,-,足立区扇２丁目１３番１号扇サンハイツ４０７号,-,-,-,,,35.763224,139.765885
608,廣木運輸株式会社,-,足立区綾瀬６丁目４番３号,不動産、レンタル・リース,-,03-3620-0031,6,,35.77093,139.826063
609,株式会社博朋,-,足立区花畑６丁目１５番１４号,-,-,-,,,35.805748,139.817971
610,株式会社デプス,-,足立区竹の塚１丁目１２番１７号,-,-,-,0,,35.790869,139.791713
611,フジ工営株式会社,牛島珠美,足立区千住元町７番６号,建設,-,03-3888-4122,28,,35.756114,139.791734
612,株式会社富士企画,佐々木博孝,足立区江北５丁目１０番２３号,不動産、レンタル・リース,http://a-fujikikaku.co.jp,-,6,,35.776848,139.767205
614,株式会社富士硝子店,-,足立区綾瀬１丁目３３番１３号,商社,-,-,,,35.758847,139.822005
615,富士製藥株式会社,-,足立区神明３丁目９番８号,-,-,-,,,35.797064,139.835222
616,富士設備工業株式会社,佐々木孝文,足立区千住河原町１６番５号,建設,-,03-3888-7021,6,,35.743103,139.798787
617,株式会社富士フィルター,-,足立区江北５丁目１２番８号,商社,-,-,39,,35.776848,139.767205
618,株式会社藤本工務店,藤本武信,足立区南花畑２丁目２６番２０号,建設,http://www.kk-fujimoto-koumuten.co.jp/,-,2,,35.790927,139.819521
619,藤屋木材株式会社,-,足立区興野１丁目１３番８号,-,-,-,,,35.769563,139.782365
620,株式会社ファインシステム,-,足立区竹の塚３丁目１６番１６号,情報・通信,-,-,1,,35.790758,139.800143
622,株式会社福島屋商店,-,足立区千住２丁目２８番地９,小売,-,-,3,,35.74958,139.801967
623,株式会社福田製作所,-,足立区扇１丁目９番１号,メーカー,-,-,2,,35.762366,139.774261
624,株式会社福屋,-,足立区古千谷本町１丁目１番４号,不動産、レンタル・リース,-,-,,,35.802527,139.775001
625,株式会社双葉食品鳥一番,-,足立区鹿浜４丁目１９番１８号,商社,-,03-3853-0919,,,35.781259,139.758237
626,株式会社鮒与,-,足立区千住仲町１１番１１号,商社,-,03-3870-5211,5,,35.744983,139.800544
627,プラスター工業株式会社,-,足立区伊興２丁目９番２２号,-,-,-,1,,35.792936,139.781086
628,株式会社プラスワン,-,足立区鹿浜６丁目３４番２１号,商社,-,-,5,,35.786345,139.759033
629,株式会社フロンティアイースト,-,足立区千住東２丁目２番１１号,建設,-,-,7,,35.745471,139.808241
630,株式会社フラワーグリーン,-,足立区舎人１丁目１１番１０号,-,-,-,,,35.807249,139.770704
631,平和工材株式会社,佐藤充志,足立区本木１丁目１７番８号,建設,-,03-3849-3301,8,,35.761206,139.785729
632,株式会社ベルコック,-,足立区西新井２丁目１番１号,-,-,-,,,35.784381,139.781432
633,株式会社へら鮒社,-,足立区綾瀬７丁目１３番１０号,情報・通信,-,03-3606-3491,5,,35.773905,139.826534
634,株式会社ホーク,-,足立区千住元町７番９号,建設,-,-,,,35.756114,139.791734
635,豊清通信株式会社,-,足立区千住寿町２６番１３号,-,-,-,,,35.753088,139.799171
636,株式会社ホーム緑産,-,足立区保木間２丁目１２番２８号,サービス,-,-,,,35.793455,139.806234
637,株式会社邦和,-,足立区中川４丁目２８番６号,-,-,-,,,35.771442,139.846681
638,北立電機商工株式会社,-,足立区鹿浜５丁目３１番９号,商社,-,-,3,,35.785595,139.754383
639,星興業株式会社,星ミサ,足立区栗原３丁目２番１１号,建設,-,03-3886-4009,3,,35.780269,139.785368
640,穂高インテリア株式会社,村上良勝,足立区南花畑２丁目３６番２号,商社,http://hodaka-interior.co.jp,03-3884-1807,6,,35.790927,139.819521
641,株式会社ホットライン,-,足立区大谷田４丁目１３番１４号,情報・通信,-,-,,,35.778912,139.838128
643,株式会社エスネット,-,足立区西新井２丁目３番２−２０１号,-,-,-,,,35.784381,139.781432
644,株式会社マイスター,-,足立区中央本町５丁目７番１０号,建設,-,-,1,,35.77781,139.807122
645,牧丘興業株式会社,-,足立区興野２丁目３１番３１号,商社,-,03-3898-4361,2,,35.768833,139.777366
646,マキタパック株式会社,-,足立区南花畑５丁目４番５号,商社,-,03-3858-7181,24,,35.796305,139.813981
647,株式会社増田製作所,-,足立区青井５丁目１４番１２号,-,-,-,1,,35.776999,139.819844
648,株式会社マッケンジー,-,足立区舎人２丁目２１番１０号,不動産、レンタル・リース,-,-,2,,35.811296,139.771662
649,松崎建設株式会社,松崎孝平,足立区梅島３丁目３１番１３号,建設,http://www.matuzaki.com/,03-3849-0182,7,,35.775806,139.794888
650,株式会社マツダ映画社,-,足立区東和３丁目１８番４号,情報・通信,-,03-3605-9981,,,35.771717,139.837921
651,株式会社マツヤマ,-,足立区東保木間２丁目１１番７号,-,-,-,,,35.792872,139.813541
652,マルエス興業株式会社,関口裕子,足立区東綾瀬１丁目２番２号,建設,-,03-3606-4215,14,,35.764485,139.832352
653,株式会社マルイチ,-,足立区中央本町２丁目６番１号,建設,-,-,0,,35.769019,139.807742
654,丸晃金属株式会社,芝崎肇,足立区千住仲町５番１０号,建設,http://www.marukoukinzoku.co.jp/,03-3870-5811,28,,35.744983,139.800544
655,丸勝木材株式会社,青木嘉勝,足立区保塚町４番１３号,商社,-,03-3884-4982,5,,35.786674,139.812942
656,丸京青果株式会社,-,足立区入谷６丁目３番１号,商社,-,03-3857-7206,2,,35.799367,139.765288
657,株式会社丸宗,-,足立区梅田２丁目２４番４号,-,-,-,0,,35.765632,139.801509
658,丸信運輸株式会社,-,足立区大谷田４丁目２０番１７号,運輸・倉庫関連,-,-,15,,35.778912,139.838128
659,株式会社トレジスタ,-,足立区西新井３丁目７番１１号,-,-,-,1,,35.788332,139.781409
660,株式会社丸庄,佐々木正一,足立区千住４丁目１６番１２号,小売,http://www.msmarusho.co.jp/,03-3881-2131,14,,35.753395,139.803278
661,株式会社丸益冷熱,-,足立区加賀１丁目１１番３号,-,-,-,,,35.788745,139.758953
662,株式会社丸吉,-,足立区足立４丁目１番２号,サービス,-,-,,,35.766192,139.805789
663,株式会社丸山商店,-,足立区入谷６丁目３番１号,-,-,-,,,35.799367,139.765288
665,株式会社三貴,-,足立区西保木間１丁目２０番２７号,メーカー,-,03-3883-3101,4,,35.796496,139.799955
666,株式会社みくま工業,-,足立区入谷１丁目４番１号,-,-,-,,,35.803769,139.768468
667,瑞穂設計株式会社,-,足立区千住３丁目６番,-,-,-,,,35.751635,139.802709
668,株式会社三井鉄工所,-,足立区千住緑町１丁目２２番１７号,メーカー,-,-,0,,35.742577,139.792502
669,株式会社ミックカンパニー,-,足立区足立３丁目５番４号,-,-,-,,,35.763981,139.810429
670,株式会社ミチノク,青沼政光,足立区綾瀬６丁目５番４号,メーカー,-,03-3620-7021,14,,35.77093,139.826063
671,株式会社ミトベ電気,-,足立区東綾瀬１丁目２５番９号,-,-,-,,,35.764485,139.832352
672,株式会社みつわ巧芸,東本光史,足立区扇２丁目２２番９号,建設,http://www.mituwakougei.com/,03-3856-4051,12,,35.763224,139.765885
673,株式会社御法川工場,久保木勇,足立区入谷９丁目３番１４号,メーカー,http://www.minorikawa.co.jp/,-,6,,35.809011,139.754661
674,株式会社ミリオン,-,足立区谷在家３丁目１番１８号,建設,-,-,,,35.788807,139.768057
675,武蔵野技研株式会社,-,足立区保木間１丁目３４番７号,-,-,-,,,35.790538,139.806494
677,株式会社ムラタ,-,足立区千住４丁目９番１４号,小売,http://murataco.main.jp/,03-3888-2525,8,,35.753395,139.803278
678,株式会社メイショー,-,足立区千住旭町２５番１０号,-,-,-,,,35.748874,139.80716
679,株式会社目黒製作所,-,足立区千住東１丁目２５番６号,商社,-,03-3882-1321,12,,35.745027,139.804524
680,株式会社メラルコ,-,足立区入谷１丁目６番１３号,-,-,-,,,35.803769,139.768468
681,茂木商事株式会社,-,足立区本木北町１０番１５号,-,-,-,,,35.765318,139.779252
682,株式会社望月食品,-,足立区辰沼１丁目９番１２号,商社,-,-,,,35.785467,139.835066
683,株式会社森田産業運輸,森田浩史,足立区江北３丁目３番２２号,建設,http://www.mih.co.jp,03-3890-6666,136,,35.774461,139.761223
684,弥栄化学工業株式会社,高橋秀典,足立区新田２丁目６番１３号,メーカー,http://www.yasaka-chem.co.jp/,03-3911-8181,7,,35.772706,139.741102
685,株式会社八千代製作所,-,足立区梅田２丁目１３番１号,メーカー,-,-,4,,35.765632,139.801509
686,株式会社梁川建装,-,足立区鹿浜８丁目２３番９号,-,-,-,1,,35.788198,139.763594
687,ホーユーハウス株式会社,-,足立区島根３丁目１９番２３号,-,-,-,0,,35.779603,139.794499
688,山形ハルタ株式会社,-,足立区千住宮元町８番８号,メーカー,-,-,40,,35.746798,139.796199
689,株式会社山三,山内サダ子,足立区青井１丁目５番２号,建設,http://www.kk-yamasan.co.jp/,03-3849-3566,26,,35.774083,139.812714
690,山崎塗装株式会社,-,足立区足立１丁目２３番４号,-,-,-,,,35.761522,139.805576
691,山田電化ハウス株式会社,山田浩康,足立区西新井栄町３丁目７番３号,小売,http://yamadadk.la.coocan.jp/,-,3,,35.776365,139.783343
692,山中運輸株式会社,-,足立区加賀１丁目１２番１号,-,-,-,,,35.788745,139.758953
693,株式会社ユーエー,佐藤裕文,足立区西伊興２丁目４番１０号,建設,http://www.yu-ei.co.jp/,03-3897-9911,45,,35.794578,139.7766
694,ユーイチ運送株式会社,市川隆,足立区鹿浜４丁目７番６号,運輸・倉庫関連,http://www.yuichi.co.jp/,-,3,,35.781259,139.758237
695,勇喜建設株式会社,-,足立区梅田８丁目５番５号,-,-,-,,,35.772921,139.795128
697,株式会社ユニコム,神保真一,足立区西竹の塚２丁目４番２０号,不動産、レンタル・リース,http://www.k-unicom.com/,03-3897-1885,5,,35.796069,139.789875
698,株式会社洋かつらセンタールミアン,-,足立区千住１丁目３９番７号,商社,-,-,4,,35.747835,139.801407
699,横田造園株式会社,横田正実,足立区舎人１丁目１１番２０号,建設,http://www.yokota-zo.co.jp/,03-3897-9553,20,,35.807249,139.770704
700,吉田自動車部品株式会社,-,足立区千住東２丁目６番１０号,商社,-,03-3879-2139,,,35.745471,139.808241
703,和広自動車株式会社,-,足立区保木間１丁目２８番８号,運輸・倉庫関連,https://www.adachi-wrecker-service.jp,-,1,,35.790538,139.806494
704,株式会社我妻,我妻利政,足立区皿沼３丁目１３番１２号,商社,http://www.mm-m.ne.jp/dillonce/Wagatsuma/,-,5,,35.794327,139.766861
705,株式会社渡喜建設,渡邊喜一郎,足立区千住寿町２５番５号,建設,http://www.wataki-kensetsu.co.jp/,03-3882-3584,7,,35.753088,139.799171
706,株式会社Ｐ．Ｍ．Ｃワタナベ,-,足立区東伊興２丁目１番９号,建設,http://www.watanabe-co.com,-,5,,35.80521,139.7882
707,株式会社渡辺栄建設,-,足立区古千谷本町４丁目６番５号,-,-,-,,,35.80647,139.780199
708,株式会社渡辺弥一郎商店,-,足立区中央本町４丁目１２番１号,商社,-,03-3887-6586,4,,35.775434,139.808267
710,株式会社リビングエース,-,足立区舎人５丁目２７番７号,-,-,-,,,35.811593,139.767983
712,株式会社ルーブル,-,足立区島根３丁目７番２０号,-,-,-,,,35.779603,139.794499
714,株式会社ウメダ衛材製造所,-,足立区梅田４丁目５番４号,商社,-,-,0,,35.762929,139.793216
715,城桜建設株式会社,盛岡秀司,足立区椿２丁目２２番１１号,建設,-,03-3898-1214,15,,35.779492,139.759813
717,株式会社ペグテック,平本健一,足立区西竹の塚２丁目２番３号,商社,http://pgt.jp/,-,4,,35.796069,139.789875
718,株式会社カネイリ,-,足立区小台２丁目２４番１６号,-,-,-,,,35.758417,139.759615
719,西照設電企画株式会社,-,足立区皿沼１丁目５番７号,-,-,-,,,35.793395,139.762847
720,新晃舗装株式会社,井上毅,足立区南花畑４丁目１番７−２０１号,建設,-,03-3885-8077,11,,35.796992,139.819152
721,豊橋株式会社,-,足立区千住仲町１５番２−９０５号,情報・通信,-,-,,,35.744983,139.800544
722,東京シビィルエンジニアリング株式会社,-,足立区入谷９丁目３０番２７号,情報・通信,-,-,,,35.809011,139.754661
723,株式会社親和設備,太田和伸,足立区西新井４丁目４番３号,建設,-,03-3896-6389,9,,35.787855,139.775443
724,株式会社大垣通商,-,足立区舎人５丁目１３番１３号,建設,http://www.kinko-ogaki.co.jp,03-3899-9700,7,,35.811593,139.767983
725,株式会社トランスリンク,-,足立区西伊興３丁目４番３号,-,-,-,,,35.798353,139.777356
726,株式会社ヤザワ塗装,矢澤健吾,足立区六木４丁目４番８号,建設,http://www.yazawa-paint.co.jp,03-6802-6712,5,,35.795981,139.838221
727,株式会社ケーエス解体,-,足立区関原３丁目２６番３号,-,-,-,,,35.771742,139.788709
728,株式会社松崎工業,-,足立区南花畑２丁目１３番１−２０１号,-,-,-,,,35.790927,139.819521
729,株式会社萬エンタープライズ,-,足立区梅島２丁目８番１７号,-,-,-,,,35.77665,139.800335
730,華陽工貿株式会社,-,足立区綾瀬１丁目１番８−１０１号,-,-,-,,,35.758847,139.822005
731,ハセ・エンタープライズ株式会社,-,足立区鹿浜６丁目１１番１５号,-,-,-,,,35.786345,139.759033
732,株式会社キョウエイクリエート,-,足立区千住東２丁目２１番２−１２１０号,-,-,-,,,35.745471,139.808241
733,株式会社トータルケアサービス加島,渋谷洋子,足立区千住仲町１６番４号,医療・福祉,http://www.kaigo-yuimaru.co.jp/,-,78,,35.744983,139.800544
734,東京リビングサービス株式会社,-,足立区六月１丁目２６番８−３０２号,サービス,-,-,,,35.78691,139.800232
735,株式会社ケイ・アイ・ドリル,後藤芳央,足立区鹿浜２丁目２８番１６号,メーカー,http://www.ki-drill.com/,-,4,,35.781856,139.747084
736,誠和光建株式会社,田中尊仁,足立区古千谷本町２丁目２０番３号,建設,https://www.kensetumap.com/company/180154/profile.php,03-3899-9239,11,,35.805545,139.77599
737,株式会社辻商店,辻三津雄,足立区関原３丁目１番１２号,商社,http://www.tsujisyouten.co.jp/,03-3886-7573,24,,35.771742,139.788709
738,株式会社稜音,俵谷幸喜,足立区舎人５丁目２０番９−１０１号,建設,-,03-3855-6671,7,,35.811593,139.767983
739,ベルメック株式会社,-,足立区梅田１丁目６番１６−１１０４号,-,-,-,,,35.762166,139.801593
740,株式会社わかばケアセンター,北爪初江,足立区竹の塚１丁目３３番１０号,医療・福祉,http://www.wakaba-care.co.jp/,-,234,,35.790869,139.791713
741,株式会社サンいながき,-,足立区西新井本町２丁目１番６−４０５号,-,-,-,2,,35.775826,139.772349
742,株式会社ビスコワン,岩崎大暁,足立区中央本町２丁目４番１３号,商社,http://visco1.co.jp/,03-3848-3160,4,,35.769019,139.807742
743,株式会社ベルビー,-,足立区千住曙町４１番１−２７０１号,-,-,-,,,35.741828,139.814018
744,株式会社エールコートサービス,関隆一郎,足立区柳原２丁目１６番４号,メーカー,https://ecs1994.i-e.jp/,03-3879-4774,2,,35.748855,139.813804
745,株式会社アサヒ産業,-,足立区西新井５丁目３番４号,商社,-,-,4,,35.784404,139.775653
746,扶桑運輸株式会社,齋藤和彦,足立区東綾瀬３丁目１番１０号,運輸・倉庫関連,http://fusou-unyu.jp/,03-3605-8302,22,,35.770916,139.833559
747,鳶渡辺工業株式会社,渡辺三紀男,足立区大谷田３丁目１２番６号,建設,-,03-3620-4551,1,,35.778755,139.841164
748,株式会社トータルヘルス,-,足立区竹の塚４丁目１３番３号,-,-,-,,,35.793974,139.800052
749,アベイユ株式会社,-,足立区柳原１丁目２２番８号,商社,-,-,3,,35.745585,139.815065
751,山王砿油株式会社,-,足立区東綾瀬３丁目１１番１７号,-,-,-,,,35.770916,139.833559
752,株式会社あじゅうん,永山都留子,足立区東和４丁目２０番１５号,情報・通信,https://www.ajyuun.co.jp/,-,20,,35.773291,139.841935
753,ポリマー株式会社,-,足立区南花畑１丁目１８番１９号,メーカー,-,-,4,,35.787716,139.82441
754,ロマーニ株式会社,-,足立区青井３丁目５番２６−３０４号,-,-,-,,,35.771768,139.819242
755,株式会社エムグローバルコーポレーション,-,足立区竹の塚６丁目７番１４号,-,-,-,,,35.795695,139.792763
756,株式会社游玄,-,足立区堀之内１丁目２０番４号,不動産、レンタル・リース,-,-,0,,35.774037,139.753907
757,株式会社エヌディーエヌ,-,足立区辰沼２丁目１６番４号,商社,-,03-3605-4422,16,,35.789713,139.834325
758,株式会社韓星,-,足立区六町１丁目１２番１４号,-,-,-,,,35.782186,139.822913
759,株式会社藤谷電設工業,藤谷正徳,足立区南花畑２丁目３２番１号,建設,http://www.fujiya-densetsu.co.jp/,03-5851-2661,96,,35.790927,139.819521
760,株式会社環境テクノ,-,足立区綾瀬３丁目１９番１８号,-,-,-,,,35.764004,139.826444
762,株式会社ヒューマン,-,足立区古千谷本町１丁目７番２５号,-,-,-,,,35.802527,139.775001
763,株式会社興商,-,足立区南花畑２丁目１３番１−２０６号,-,-,-,,,35.790927,139.819521
764,株式会社栄光技研,-,足立区保木間２丁目２７番３号,-,-,-,,,35.793455,139.806234
765,暁電波株式会社,-,足立区堀之内１丁目６番１１号,-,-,-,,,35.774037,139.753907
769,株式会社ワンダー,-,足立区皿沼２丁目１１番５号,小売,-,-,7,,35.791652,139.767304
770,荒玩工業株式会社,-,足立区西新井１丁目３５番１６号,不動産、レンタル・リース,-,-,3,,35.78031,139.781021
771,株式会社ユメテラス,酒井慎一,足立区千住３丁目３１番地,小売,http://www.yumeterasu.co.jp/,03-5813-7831,13,,35.751635,139.802709
772,月舘紙工株式会社,-,足立区島根２丁目２９番２５号,メーカー,-,-,2,,35.782287,139.800268
773,株式会社エー・アール・シーツチヤ,-,足立区古千谷本町１丁目６番３号,建設,-,-,61,,35.802527,139.775001
774,クボ建築工業株式会社,-,足立区千住関屋町７番１２号,-,-,-,,,35.741334,139.806568
775,株式会社プロット,-,足立区梅田７丁目１９番１６−４２９号,建設,-,-,1,,35.769553,139.800673
776,アサヒ物産株式会社,-,足立区綾瀬２丁目２１番１号,メーカー,-,-,,,35.759926,139.828332
777,株式会社アクア,-,足立区西綾瀬３丁目３５番１０−９０１号,-,-,-,3,,35.764148,139.816971
778,石崎産業株式会社,-,足立区梅田３丁目２０番８号,サービス,-,03-3887-2009,59,,35.763036,139.79696
779,株式会社マジックバンブー,-,足立区綾瀬６丁目３番６号グリーンパーク綾瀬リバーサイド４０７号室,-,-,-,,,35.77093,139.826063
780,株式会社ワタル,-,足立区梅田１丁目２８番９号,-,-,-,,,35.762166,139.801593
781,東京中央運輸株式会社,沼田力哉,足立区加賀２丁目２８番１６号,運輸・倉庫関連,http://chuoh-unyu.co.jp/group.html,03-5647-2951,25,,35.792695,139.760153
782,株式会社オメガコーポレーション,-,足立区千住大川町２８番４号,-,-,-,,,35.757149,139.79809
783,ユニオン梱包株式会社,-,足立区鹿浜４丁目１５番１７号,-,-,-,,,35.781259,139.758237
784,株式会社チャーガ．ジャパン,-,足立区西新井７丁目４番１９号,-,-,-,,,35.780571,139.771587
785,北千住都市開発株式会社,-,足立区千住３丁目９２番地,-,-,-,,,35.751635,139.802709
787,株式会社シュテルンコーポレーション,-,足立区西保木間２丁目３番１７−７０５号,-,-,-,,,35.800512,139.79963
789,株式会社ゲームサイエンス,-,足立区綾瀬６丁目３番６−４０７号,情報・通信,-,-,,,35.77093,139.826063
790,株式会社伸明ハウジング,山崎伸,足立区栗原３丁目２１番１１号,建設,http://shinmei66.co.jp/group/housing/,-,2,,35.780269,139.785368
791,弘和工業株式会社,白石和彦,足立区大谷田５丁目２９番１６号,建設,http://www.kouwa-co.com/,03-3606-2386,23,,35.78373,139.839345
792,株式会社フタバ,-,足立区加賀１丁目６番９号,サービス,-,-,10,,35.788745,139.758953
793,株式会社オーバルリンク,深沢泰秀,足立区千住旭町４６番５−８０３号,サービス,https://www.oval-link.co.jp/,-,1,,35.748874,139.80716
794,株式会社アルクストレーディング,-,足立区東和５丁目１４番１５号,-,-,-,,,35.775235,139.838226
795,株式会社オー・ティ・エス,小原優子,足立区保木間１丁目２１番１２−６０１号,メーカー,https://www.k-ots.com/,-,5,,35.790538,139.806494
796,株式会社芳味,本田市夫,足立区興野２丁目１８番１３号,商社,http://www.homi.co.jp/,-,11,,35.768833,139.777366
797,日本ハウスカラー株式会社,佐藤健,足立区千住橋戸町５８番地,建設,http://www.housecolor.jp/,03-3870-0707,3,,35.740193,139.797811
798,株式会社有和商事,-,足立区栗原１丁目２１番５号,-,-,-,,,35.780414,139.789422
800,株式会社エルグ,-,足立区一ツ家２丁目２番５−９−１０２号,金融・保険,-,-,,,35.783317,139.813445
802,テクノマスター株式会社,-,足立区島根１丁目６番１１号,-,-,-,,,35.77926,139.799926
803,ウメムラシステムズ株式会社,-,足立区千住仲町１９番１号,-,-,-,,,35.744983,139.800544
804,株式会社パイメゾン,-,足立区東和４丁目１３番３号,情報・通信,-,-,,,35.773291,139.841935
805,株式会社ネプチューン,-,足立区本木南町１９番１２号,-,-,-,1,,35.760899,139.781737
807,株式会社レインボー・デリバリーサービス,-,足立区千住仲町４９番１１号,運輸・倉庫関連,-,-,,,35.744983,139.800544
808,株式会社全農林,-,足立区保木間２丁目１５番１０号,建設,-,-,,,35.793455,139.806234
809,東京ビジネスサポート株式会社,-,足立区島根３丁目７番６号,商社,-,-,0,,35.779603,139.794499
810,エヌ・エス城東株式会社,-,足立区入谷２丁目２１番９−１０４号,-,-,-,,,35.808771,139.764252
811,株式会社ＫＡＳＵＫＥ,-,足立区伊興５丁目１４番１５号,-,-,-,0,,35.798861,139.782432
812,株式会社アガタ,田賀俊行,足立区保木間３丁目２５番１５号,建設,http://www.agat-inc.co.jp/,-,20,,35.796447,139.806375
813,株式会社ウサミ設備,-,足立区皿沼３丁目２３番８号,建設,-,03-5837-1666,4,,35.794327,139.766861
814,株式会社ピーアーク千葉,上田剛,足立区竹の塚６丁目８番１５号,サービス,http://www.p-ark.co.jp/corporate/outline/group.html,-,67,,35.795695,139.792763
815,株式会社サンノライズ,-,足立区西新井６丁目３９番１３号シーダエクセレント３０６,-,-,-,,,35.780529,139.776124
816,株式会社創研,-,足立区綾瀬２丁目１番６号,-,-,-,,,35.759926,139.828332
817,株式会社ＢＯＮＤ　ＣＯＲＰＯＲＡＴＩＯＮ,-,足立区綾瀬１丁目３３番１５号木村荘２０５,-,-,-,1,,35.758847,139.822005
819,成美トラスト株式会社,佐久間哲也,足立区入谷７丁目７番１４号,建設,http://www.narumi-gr.co.jp/company/,-,2,,35.799945,139.760376
820,株式会社ヤマダイ,-,足立区東伊興３丁目３番１３号,建設,-,-,,,35.801544,139.791922
821,マーキュリーアセットマネージャーズ株式会社,-,足立区西新井本町１丁目２１番３号３０３,-,-,-,,,35.77579,139.779365
823,ナルヒラ建装株式会社,-,足立区東和１丁目２７番４号,-,-,-,,,35.766668,139.837754
824,株式会社天正印刷,池谷隆司,足立区扇１丁目１４番３号,メーカー,http://61.120.12.246/tensho/,-,16,,35.762366,139.774261
825,ＵＳＩジャパン株式会社,-,足立区伊興５丁目１９番２１号,-,-,-,1,,35.798861,139.782432
826,株式会社ウィッシュ,-,足立区千住１丁目３番３号,-,-,-,,,35.747835,139.801407
827,株式会社トラック・トラッカー,渡邉大輔,足立区西竹の塚２丁目１３番１９号,小売,http://www.truck-tracker.co.jp/,03-3896-1009,19,,35.796069,139.789875
828,株式会社福得,-,足立区千住旭町３２番１２号,-,-,-,,,35.748874,139.80716
829,白井グループ株式会社,白井徹,足立区入谷５丁目１６番２８号,サービス,http://www.shirai-g.co.jp/,-,54,,35.803842,139.762302
830,株式会社トップス寺田,-,足立区梅島３丁目１３番１５号,商社,-,03-5845-3848,0,,35.775806,139.794888
831,株式会社オーク,-,足立区保木間１丁目１１番２０号,不動産、レンタル・リース,-,-,2,,35.790538,139.806494
833,株式会社ユニフィールド,-,足立区西新井栄町３丁目７番１１号,不動産、レンタル・リース,-,03-5888-5313,,,35.776365,139.783343
834,株式会社ムーピー,-,足立区西綾瀬１丁目８番１８号,-,-,-,,,35.76061,139.815179
835,株式会社アクト,中村幹夫,足立区谷中１丁目１番１９号,建設,-,03-3628-5431,2,,35.77249,139.832129
836,株式会社ボタール,-,足立区西綾瀬３丁目８番１−１０７号,-,-,-,0,,35.764148,139.816971
837,株式会社石渡山石酒類販売,-,足立区鹿浜６丁目３４番１２号,小売,-,-,,,35.786345,139.759033
838,株式会社カワノ,-,足立区椿２丁目９番１８号,商社,-,-,2,,35.779492,139.759813
839,ニコウデンキ株式会社,-,足立区西綾瀬４丁目６番１１号,-,-,-,1,,35.764887,139.819617
840,マルコータクシー株式会社,関口孝夫,足立区鹿浜４丁目６番１５号,不動産、レンタル・リース,http://www.maruko-taxi.com,-,139,,35.781259,139.758237
841,株式会社アローシステム開発,渡邉元巳,足立区梅島３丁目３２番６号,情報・通信,http://www.arrowsystem.co.jp/,-,64,,35.775806,139.794888
842,三和興業株式会社,-,足立区南花畑３丁目３３番１号第４８新井ビル２Ｆ,-,-,-,,,35.792441,139.824996
843,株式会社オーエス企画,-,足立区西綾瀬３丁目２１番９号,運輸・倉庫関連,-,-,,,35.764148,139.816971
844,株式会社創和,-,足立区大谷田４丁目２番４号,-,-,-,,,35.778912,139.838128
846,株式会社和幸,-,足立区谷中４丁目１番５号,メーカー,-,03-3606-5500,5,,35.782042,139.832019
847,株式会社カンレイ工業,河原木廣正,足立区花畑１丁目３番７号,建設,-,03-3883-3034,7,,35.799723,139.812801
848,ハナシス株式会社,-,足立区西竹の塚１丁目１１番２−７１２号,-,-,-,,,35.792027,139.788406
849,株式会社オフサイドジャパン,-,足立区足立１丁目１９番１２−３０６号,-,-,-,,,35.761522,139.805576
850,株式会社ＴｒｉｐｌｅＬｉｎｅ,-,足立区入谷５丁目１３番１２号,-,-,-,5,,35.803842,139.762302
851,株式会社ロング,-,足立区梅島１丁目３４番１号,メーカー,-,-,,,35.772496,139.800703
852,株式会社宏達設備,-,足立区六月２丁目１０番２−５１０号,-,-,-,1,,35.786418,139.795161
853,株式会社健美の杜,-,足立区千住関屋町１３番２−２０２号,-,-,-,,,35.741334,139.806568
854,株式会社パルメイト,-,足立区西綾瀬２丁目４番１号,-,-,-,4,,35.763724,139.814163
855,丸金化学株式会社,-,足立区西竹の塚１丁目１２番６−１０２号,-,-,-,,,35.792027,139.788406
856,株式会社エヌアンドティ・フーズ,-,足立区本木北町１０番１３号,-,-,-,,,35.765318,139.779252
857,首都圏空調サービス株式会社,-,足立区六木４丁目８番４号,-,-,-,,,35.795981,139.838221
858,株式会社スチールス,-,足立区西保木間４丁目１１番２４号,商社,-,-,1,,35.803186,139.795318
859,株式会社小台合紙製作所,-,足立区小台２丁目５０番７号,小売,-,-,2,,35.758417,139.759615
861,株式会社町田建設工事,町田日出夫,足立区東和２丁目２０番１号,建設,-,03-5534-8977,,,35.768813,139.841969
862,株式会社アール・ウェイブ,-,足立区谷中１丁目２３番１５号,小売,-,-,2,,35.77249,139.832129
863,株式会社エーシーエス,-,足立区綾瀬６丁目２９番７号,-,-,-,1,,35.77093,139.826063
864,株式会社りんかん建設,竹越亘,足立区佐野２丁目３３番１４号,建設,-,03-6303-1021,12,,35.787565,139.838744
865,株式会社クールアンドトラスト,内藤泰作,足立区竹の塚３丁目１番２２号古庄ウエルズ５号,建設,http://www.candt-company.com,03-6804-3030,8,,35.790758,139.800143
866,株式会社ベストクループロダクツ,-,足立区足立２丁目４３番４号,-,-,-,,,35.758779,139.81049
867,株式会社中橋テック,-,足立区島根２丁目１８番４号,-,-,-,1,,35.782287,139.800268
868,株式会社いなほ,奥澤加恵子,足立区入谷１丁目１３番１７号,-,http://hp.kaipoke.biz/7mf/,-,4,,35.803769,139.768468
869,株式会社アイシーイー,-,足立区西新井本町５丁目１番１１号,情報・通信,-,-,,,35.773892,139.783153
870,株式会社プリンティングミキ,-,足立区扇２丁目７番４号,-,-,-,1,,35.763224,139.765885
871,株式会社ユウ・ライフ,-,足立区栗原３丁目１０番３０号,商社,-,-,3,,35.780269,139.785368
872,株式会社レボリューション,金子壽波留,足立区竹の塚１丁目１４番１０号,情報・通信,http://www.revolution-inc.com/,-,0,,35.790869,139.791713
873,株式会社狩野木工,-,足立区本木東町１７番３号,-,-,-,2,,35.766115,139.782345
874,フォーライフ株式会社,長濱秀治,足立区千住仲町１８番１１号,小売,http://www.for-life.net/,-,2,,35.744983,139.800544
875,株式会社め組,岩崎浩明,足立区入谷３丁目２番１８号,建設,http://www.me-gumi.co.jp/,03-5691-7261,1,,35.81061,139.76091
876,株式会社コマツ,-,足立区一ツ家４丁目４番９号,-,-,-,,,35.780235,139.817408
877,宮腰運輸機工株式会社,-,足立区栗原４丁目１４番８号,-,-,-,,,35.785392,139.785461
878,株式会社ソシオ,-,足立区西新井７丁目２番地,-,-,-,,,35.780571,139.771587
879,株式会社ジェージーイー,坂田一広,足立区竹の塚４丁目９番１０号,メーカー,http://www.jbeam.co.jp/,-,,,35.793974,139.800052
880,株式会社あやホームケア,-,足立区千住緑町２丁目４番５号,-,-,-,1,,35.744936,139.792197
881,株式会社三明インターナショナル,-,足立区東和４丁目１９−１０−１Ｆ,情報・通信,http://www.global-smi.com,-,4,,35.773291,139.841935
882,株式会社丸巧,代表取締役 遠藤 勝久,足立区西伊興１丁目２番２号,建設,http://maru-kou.jp/,-,6,,35.792396,139.77469
883,株式会社コスモエンタープライズ,-,足立区青井６丁目１６番１６号,商社,-,-,8,,35.77687,139.81343
884,株式会社フクムラ,福村勝市,足立区小台２丁目３３番１８号,メーカー,http://www.fukumura.info/,-,5,,35.758417,139.759615
885,株式会社ケルプクリーンサポート,代表取締役 織原 正人,足立区梅田２丁目４番１５−１０４号,不動産、レンタル・リース,http://www.kelp-cs.co.jp,03-6663-8541,7,,35.765632,139.801509
886,株式会社ビッグワン,-,足立区西新井２丁目６番６−３０３号,-,-,-,,,35.784381,139.781432
887,株式会社三城,-,足立区舎人５丁目２８番２７号,建設,-,-,17,,35.811593,139.767983
888,株式会社サンユウ・クリンネス,-,足立区綾瀬３丁目７番２０号,-,-,-,1,,35.764004,139.826444
891,株式会社エコアドバンスジャパン,福島文雄,足立区本木１丁目１番１３号,商社,http://www.ecoadvancedjapan.co.jp/,03-3880-6628,1,,35.761206,139.785729
892,株式会社タックアート,-,足立区保木間１丁目１６番２−１０５号,-,-,-,,,35.790538,139.806494
893,株式会社武井製作所,武井一央,足立区鹿浜２丁目４番１５号,建設,http://www.takei-ss.co.jp/,03-3899-5230,7,,35.781856,139.747084
895,ＲＡ株式会社,-,足立区西新井栄町１丁目１４番１５号,-,-,-,,,35.774025,139.788795
896,ハイネスエース株式会社,-,足立区綾瀬１丁目３２番１３号,不動産、レンタル・リース,-,-,3,,35.758847,139.822005
897,ＪＡＰＡＮ　ＴＯＵＲＳ株式会社,-,足立区綾瀬２丁目２６番１６号,-,-,-,,,35.759926,139.828332
898,株式会社プロファックスジャパン,-,足立区綾瀬４丁目９番地３４号,商社,-,-,,,35.765351,139.822318
899,株式会社アイチャージ,山本将寛,足立区神明３丁目２０番７号,建設,http://www.group-y.com/,03-3628-2239,33,,35.797064,139.835222
900,株式会社新紀元総合コンサルタンツ,-,足立区東綾瀬３丁目７番１−４０１号,サービス,http://nesc-jp.com,-,3,,35.770916,139.833559
901,ワールドリンカー株式会社,-,足立区谷中１丁目３１番７号,-,-,-,,,35.77249,139.832129
902,株式会社大明観光ＥＸＰＲＥＳＳ,-,足立区保木間５丁目３９番５号,-,-,-,,,35.80436,139.803197
903,株式会社ＭＡＫＥ　ＴＨＥ　ＤＲＥＡＭ,-,足立区竹の塚２丁目３２番１６号ＬＯＣＯ．Ｇ,-,-,-,,,35.791029,139.795441
904,株式会社Ｃｒｏｐ,-,足立区鹿浜７丁目２番１２号,商社,-,-,,,35.785268,139.763499
905,株式会社エア・プランニング,-,足立区東和３丁目１９番３−１０２号,-,-,-,1,,35.771717,139.837921
906,株式会社パピルス,-,足立区竹の塚５丁目３３番６号,-,-,-,,,35.795687,139.796115
907,株式会社ショウ動物病院,-,足立区綾瀬４丁目３１番３号,サービス,-,-,2,,35.765351,139.822318
908,株式会社オフィスＧ．Ｆ．,-,足立区六月２丁目３０番５号,-,-,-,,,35.786418,139.795161
909,株式会社ロジカル,永島浩一,足立区竹の塚２丁目３２番１３号,運輸・倉庫関連,http://www.assist-japan.co.jp/logical/,-,542,,35.791029,139.795441
910,株式会社アドバンスシステム,-,足立区谷在家３丁目２５番６号,-,-,-,,,35.788807,139.768057
911,株式会社ありがとう,-,足立区西新井本町４丁目１１番６−３０８号,情報・通信,-,-,0,,35.772781,139.777998
912,株式会社共栄精機,小山仁,足立区中央本町２丁目２４番１３号,メーカー,http://www.kyoeiseiki.co.jp,03-3852-1611,14,,35.769019,139.807742
913,株式会社コマック,代表取締役 内木 雄也,足立区小台２丁目８番４号,メーカー,http://www.komack.co.jp/,-,70,,35.758417,139.759615
914,株式会社三協樹脂工作所,-,足立区入谷９丁目１５番１３号,メーカー,http://www.sankyojushi.co.jp,03-3856-2561,4,,35.809011,139.754661
915,株式会社ケニーズ,-,足立区竹の塚６丁目１４番１５号,-,-,-,8,,35.795695,139.792763
916,株式会社竹鼻運送,-,足立区栗原３丁目１０番１９−４０２号,運輸・倉庫関連,-,03-3887-6777,12,,35.780269,139.785368
917,張氏国際貿易株式会社,-,足立区保木間５丁目２４番８号,-,-,-,,,35.80436,139.803197
918,株式会社ヤコーシステム,-,足立区神明３丁目２７番２８号,-,-,-,1,,35.797064,139.835222
919,株式会社岩崎桐材店,-,足立区千住緑町１丁目２２番７号,商社,-,03-3888-1765,2,,35.742577,139.792502
920,株式会社鈴木電設,-,足立区鹿浜１丁目８番１８号,建設,-,-,2,,35.776167,139.748476
921,株式会社すずらん整骨院,-,足立区足立４丁目３８番１２号,医療・福祉,-,-,1,,35.766192,139.805789
923,三光興産株式会社,-,足立区梅田７丁目２３番１１−３０３号,情報・通信,-,-,,,35.769553,139.800673
924,株式会社サガン,-,足立区青井４丁目１７番７号,メーカー,-,-,1,,35.774982,139.819686
925,株式会社晴友,-,足立区興野１丁目７番１０号,-,-,-,,,35.769563,139.782365
926,株式会社ヘルスサポート,-,足立区鹿浜７丁目６番１８号,-,-,-,,,35.785268,139.763499
927,株式会社アクティブ・プラス,-,足立区千住１丁目４番１号東京芸術センター１５１０号,-,-,-,1,,35.747835,139.801407
928,株式会社ＪＣ工房,-,足立区興野２丁目１６番１０号,-,-,-,,,35.768833,139.777366
929,株式会社光道,-,足立区鹿浜３丁目３０番１５号,建設,-,-,9,,35.781121,139.753482
930,株式会社ミヤハラ商運,宮原和隆,足立区江北４丁目２９番２３号,運輸・倉庫関連,http://miyahara-trans.jp/,-,14,,35.773847,139.766786
931,株式会社オオタ,-,足立区足立３丁目２９番３−１０１号,-,-,-,,,35.763981,139.810429
932,デルタソフト株式会社,レ・ハイ・チュウ,足立区保木間５丁目３４番７号加藤デンタルビル５０２,-,http://www.deltasoft.co.jp/homes/,-,,,35.80436,139.803197
933,株式会社アデッション,-,足立区南花畑２丁目１０番１７号,-,http://www.bepritt.jp/,-,2,,35.790927,139.819521
934,株式会社スミス,-,足立区綾瀬２丁目２７番１−３０４号,-,-,-,0,,35.759926,139.828332
935,株式会社丸一不動産,山口学,足立区弘道１丁目２８番１号,不動産、レンタル・リース,http://www.e-maruichi.co.jp/,03-3840-3618,1,,35.768519,139.812339
936,株式会社クリエイトフューチャー,-,足立区保木間５丁目２４番２４−３０５号,サービス,-,-,1,,35.80436,139.803197
937,湘南流通サービス株式会社,長沼力,足立区中川４丁目４３番１号,運輸・倉庫関連,-,-,2,,35.771442,139.846681
938,株式会社ヨシケン,-,足立区梅田７丁目１１番１０−３０１号,-,-,-,,,35.769553,139.800673
939,株式会社新郷厨房,-,足立区入谷１丁目１９番１２号,商社,-,03-6425-7745,3,,35.803769,139.768468
940,株式会社東京タクシー城北,-,足立区新田２丁目９番１６号,不動産、レンタル・リース,-,03-6661-0253,135,,35.772706,139.741102
941,株式会社ジャパンシステム,-,足立区東保木間２丁目１６番４号,-,-,-,,,35.792872,139.813541
942,株式会社ブレイクスルー,-,足立区古千谷本町２丁目１５番１９号,サービス,-,-,,,35.805545,139.77599
943,ユキ株式会社,-,足立区神明１丁目３番１７−１０４号,-,-,-,,,35.792802,139.829402
944,アイ・フェルマテック株式会社,-,足立区花畑６丁目８番１０号,メーカー,http://www.felmatech.com,-,3,,35.805748,139.817971
945,株式会社ビックコム,-,足立区千住曙町６番１−９０４号,-,-,-,,,35.741828,139.814018
946,株式会社楽一フーズ,-,足立区花畑１丁目２２番３号,小売,-,-,14,,35.799723,139.812801
947,株式会社中山工務店,中山三夫,足立区谷在家３丁目２０番８号,建設,http://nakayamakoumuten.com,03-3899-1870,1,,35.788807,139.768057
948,あさの商店株式会社,-,足立区東綾瀬１丁目２０番１４号,-,-,-,,,35.764485,139.832352
949,大澤工業株式会社,-,足立区東伊興２丁目１３番１７号,-,-,-,1,,35.80521,139.7882
950,株式会社ゼロ・エイトコーポレーション,-,足立区谷中５丁目１番１５−８０１号,-,-,-,,,35.783196,139.834949
951,株式会社大河原造園,大河原雄二,足立区保木間２丁目２６番６号,建設,-,03-5686-4345,5,,35.793455,139.806234
952,株式会社ＨＡＬ,-,足立区新田３丁目２５番１０号,-,-,-,,,35.771394,139.748646
953,株式会社ＴＡＫＡＨＡＳＨＩ,-,足立区栗原３丁目２１番５号,-,-,-,1,,35.780269,139.785368
954,株式会社ベジタブル・ウエーブ,-,足立区東伊興３丁目１７番８号,-,-,-,,,35.801544,139.791922
956,株式会社栄友,-,足立区小台２丁目１３番１２号,-,-,-,,,35.758417,139.759615
957,株式会社ライトアップ,-,足立区竹の塚２丁目２８番８−３０２号,-,-,-,,,35.791029,139.795441
958,株式会社アルラウム,-,足立区鹿浜７丁目２４番７号,-,-,-,,,35.785268,139.763499
959,ＹＭ建装株式会社,-,足立区中央本町１丁目１６番１−２０９号,-,-,-,,,35.772771,139.804417
960,株式会社槇島電工,槇島康友,足立区皿沼２丁目１４番４号,建設,-,03-3857-9341,10,,35.791652,139.767304
961,株式会社タイタンズ,-,足立区千住１丁目４番１号東京芸術センター１０Ｆ,-,-,-,,,35.747835,139.801407
962,フレッシュフィールド株式会社,-,足立区梅島１丁目１４番２号,小売,-,-,0,,35.772496,139.800703
963,東金化成株式会社,-,足立区東綾瀬２丁目８番１−１０２号,-,-,-,,,35.767486,139.831897
964,株式会社ライフクリエイト,-,足立区竹の塚１丁目１２番１２−３０２号,-,-,-,10,,35.790869,139.791713
965,株式会社アシビナ,-,足立区中川４丁目２９番９−７０８号,-,-,-,,,35.771442,139.846681
966,ＲＵＳＴＹ’Ｓ株式会社,-,足立区栗原１丁目４番１５号,-,-,-,,,35.780414,139.789422
967,リブート株式会社,-,足立区保木間１丁目３７番２号,小売,http://www.re-boot.jp/,-,5,,35.790538,139.806494
968,株式会社記念日百貨店,-,足立区千住３丁目３１番４号,-,-,-,0,,35.751635,139.802709
969,株式会社東友パック,-,足立区梅島３丁目２６番１３号,-,-,-,2,,35.775806,139.794888
970,株式会社ＢＩＫＥＮ,-,足立区神明３丁目２５番５号,-,-,-,4,,35.797064,139.835222
971,株式会社空間工房,-,足立区梅島２丁目１７番２−１０６号,-,-,-,,,35.77665,139.800335
972,株式会社コウユウ,-,足立区日ノ出町２７番３−２１０号,建設,-,-,,,35.753521,139.810519
973,株式会社ヒューマンネット,澤田浩志,足立区千住１丁目４番１号,不動産、レンタル・リース,http://hmn-net.co.jp,03-6273-9480,5,,35.747835,139.801407
974,株式会社藤本食品,-,足立区加平１丁目２３番６号,商社,-,-,1,,35.775903,139.826866
975,株式会社ＷＩＺ,-,足立区扇２丁目２５番１号,サービス,-,-,,,35.763224,139.765885
976,株式会社東京デリバリーエーゼント,-,足立区椿２丁目１１番１０号,運輸・倉庫関連,-,03-5242-6295,5,,35.779492,139.759813
978,株式会社コニシ,-,足立区千住河原町３４番４号,-,-,-,,,35.743103,139.798787
979,株式会社シンフォニー,-,足立区南花畑３丁目３番５号,金融・保険,-,-,1,,35.792441,139.824996
980,韓愛株式会社,-,足立区綾瀬６丁目３０番７号,-,-,-,,,35.77093,139.826063
981,株式会社ごっつり,西村直剛,足立区千住旭町４１番１７号,サービス,http://www.gotsuri.com/,-,10,,35.748874,139.80716
982,株式会社住まい＆スマイル,-,足立区伊興１丁目２４番２５号,不動産、レンタル・リース,http://www.c21suma-suma.jp,03-5838-0021,5,,35.790038,139.784815
983,株式会社Ｎ．Ｈコーポレーション,-,足立区梅田８丁目８番１０号,-,-,-,1,,35.772921,139.795128
984,株式会社五廣,-,足立区関原３丁目２９番１号,不動産、レンタル・リース,-,-,14,,35.771742,139.788709
985,株式会社ｓｈｕｔｅｃ,-,足立区綾瀬１丁目３５番５号アトレ綾瀬１３０３,-,-,-,4,,35.758847,139.822005
986,株式会社フクズミ,-,足立区本木１丁目５番１９号,メーカー,-,-,0,,35.761206,139.785729
987,株式会社優喜組積,-,足立区梅島３丁目７番１０号,-,-,-,5,,35.775806,139.794888
988,株式会社ナカノフーズ,-,足立区日ノ出町２７番３−８３４号,-,-,-,,,35.753521,139.810519
989,株式会社フジ建装,-,足立区大谷田２丁目２４番１６−１０８号,-,-,-,,,35.782465,139.845017
990,株式会社る・プラ,平山眞二,足立区千住橋戸町６４番地,メーカー,http://www.leplat.jp,-,7,,35.740193,139.797811
991,株式会社ＳＭＡＲＴ,-,足立区新田３丁目３５−３２番,-,-,-,1,,35.771394,139.748646
992,鈴木塗建工業株式会社,鈴木智晴,足立区堀之内１丁目１０番３４号,建設,-,03-3853-0030,2,,35.774037,139.753907
993,アイガス印刷株式会社,-,足立区宮城１丁目２番２１号,-,-,-,0,,35.75933,139.755095
994,株式会社莞爾,-,足立区梅島３丁目３３番２−３０２号,情報・通信,-,-,,,35.775806,139.794888
995,アズール株式会社,-,足立区保木間３丁目２９番１０号,-,-,-,,,35.796447,139.806375
996,株式会社アライズ,-,足立区足立４丁目４０番１６号,不動産、レンタル・リース,-,-,,,35.766192,139.805789
997,株式会社長田工業,-,足立区佐野１丁目９番６号,建設,-,-,13,,35.787173,139.843499
998,株式会社ショキタ,諸喜田惠勝,足立区鹿浜６丁目３５番２号,建設,-,03-3855-7610,13,,35.786345,139.759033
999,株式会社ルネサンス・コーポレーション,-,足立区保木間４丁目２番１５号,-,-,-,,,35.798723,139.805974
1001,東真株式会社,-,足立区鹿浜４丁目２４番２１号,-,-,-,,,35.781259,139.758237
1002,株式会社めぐみ,-,足立区西新井栄町２丁目５番１７号,建設,-,-,5,,35.7766,139.788031
1003,株式会社ＡＮ　ＥＡＳＥ,-,足立区柳原２丁目２０番１６号,-,-,-,,,35.748855,139.813804
1004,株式会社恵春工建,-,足立区皿沼３丁目２１番１５号,-,-,-,1,,35.794327,139.766861
1005,株式会社ジョイントシステム,-,足立区西保木間３丁目１６番２２−１４０１号,情報・通信,-,-,,,35.804266,139.799906
1006,改進タクシー株式会社,井上豊,足立区中央本町４丁目１３番２４号,不動産、レンタル・リース,http://kaisintaxi.com/,03-3887-7311,120,,35.775434,139.808267
1007,株式会社オーエス,-,足立区保木間１丁目３５番１３号,商社,-,-,2,,35.790538,139.806494
1008,株式会社セレメイク,-,足立区入谷２丁目２５番３２号,-,-,-,,,35.808771,139.764252
1009,株式会社小松原商店,-,足立区伊興５丁目１８番９号,商社,-,-,3,,35.798861,139.782432
1010,株式会社イデアデザインインターナショナル,-,足立区千住河原町２５番８号,建設,-,-,1,,35.743103,139.798787
1011,株式会社蔵,-,足立区竹の塚６丁目１５番２号エクシード竹の塚,建設,-,-,2,,35.795695,139.792763
1012,Ａｄｖｅｎｔｕｒｅ　Ｄｉｖａｓ株式会社,-,足立区新田３丁目３７番１３−７０６号,-,-,-,2,,35.771394,139.748646
1013,株式会社アイエスコーポレーション,-,足立区島根１丁目１番１３−２０３号,サービス,-,-,,,35.77926,139.799926
1014,株式会社クルーズ,西山厚,足立区江北５丁目１３番５号,運輸・倉庫関連,http://cruise2001.co.jp/,03-5838-2057,46,,35.776848,139.767205
1015,株式会社オレンジアーチ,代表取締役 本山 功,足立区千住１丁目１１番２号北千住Ｖビルディング７階,情報・通信,http://www.orangearch.co.jp/,-,151,,35.747835,139.801407
1016,株式会社リペアニーズ,原敏昭,足立区古千谷本町４丁目２番２３号,商社,https://www.repairneeds.com/,03-5838-2922,,,35.80647,139.780199
1017,株式会社ＳＯＺＯ　ＦＡＣＴＯＲＹ,-,足立区千住元町２２番９号,建設,-,-,8,,35.756114,139.791734
1018,本町物流株式会社,-,足立区中央本町１丁目２番１１号,-,-,-,,,35.772771,139.804417
1019,株式会社ミユキエンタープライズ,-,足立区東和５丁目７番２２号,-,-,-,,,35.775235,139.838226
1020,Ｃ−ＯＣＥＡＮ株式会社,-,足立区東和３丁目１８番１０号,-,-,-,,,35.771717,139.837921
1021,株式会社セレクトワン,-,足立区梅田１丁目１１番１１号,-,-,-,,,35.762166,139.801593
1022,株式会社メディアパーソン,-,足立区足立３丁目２８番７−２０８号,-,-,-,1,,35.763981,139.810429
1023,株式会社ＥＢＡ,阿部将吉,足立区千住１丁目４番１号東京芸術センター１８１２号,建設,http://www.zennichi.net/m/eba/index.asp,-,1,,35.747835,139.801407
1024,株式会社ザ・ホーム,-,足立区青井３丁目５番２６−６２９号,商社,-,-,,,35.771768,139.819242
1025,Ｔ．Ｋ．サービス株式会社,-,足立区西伊興１丁目４番２８号,-,-,-,,,35.792396,139.77469
1026,株式会社ＩＮＤＹ　ｍａｓａｈｉｒｏ　ＧＴ,-,足立区大谷田５丁目３番１０号,サービス,-,-,2,,35.78373,139.839345
1028,株式会社エーワン,-,足立区鹿浜８丁目１１番１０号,-,-,-,,,35.788198,139.763594
1029,株式会社天裕,-,足立区西新井本町３丁目１番５号,-,-,-,,,35.77528,139.775725
1030,株式会社４ｃｌｏｖｅｒ,-,足立区保木間２丁目７番９号,-,-,-,1,,35.793455,139.806234
1031,株式会社平賀,平賀治郎,足立区保塚町１９番１６号,-,https://www.pp-hiraga.co.jp/,-,,,35.786674,139.812942
1032,株式会社マルトク,徳永忠吉,足立区本木２丁目３２番１０号,その他,http://www.a-yamayoshi.co.jp/,-,4,,35.767596,139.785349
1034,株式会社ＮＹＣ,-,足立区南花畑５丁目２４番２７号,-,-,-,12,,35.796305,139.813981
1035,株式会社メインハウス,-,足立区谷中１丁目１７番４号,-,-,-,,,35.77249,139.832129
1036,株式会社ナカニシ,-,足立区綾瀬２丁目４３番７号,-,-,-,5,,35.759926,139.828332
1037,株式会社新城組,-,足立区西新井４丁目２４番１１号,-,-,-,8,,35.787855,139.775443
1038,アガサ土木工業株式会社,-,足立区西伊興２丁目８番１６号,-,-,-,1,,35.794578,139.7766
1039,株式会社フォーリンク,-,足立区島根３丁目１９番２３−４０３号,建設,-,-,,,35.779603,139.794499
1040,株式会社モリタ,-,足立区日ノ出町６番６号,-,-,-,1,,35.753521,139.810519
1041,株式会社Ｈ＆Ｍフード・ジャパン,-,足立区綾瀬３丁目２８番２号,-,-,-,,,35.764004,139.826444
1042,株式会社マルタケ,-,足立区西新井１丁目７番４号,-,-,-,,,35.78031,139.781021
1043,株式会社正南珍,-,足立区加平３丁目１番１号,-,-,-,,,35.780082,139.82902
1044,株式会社東京スポーツアカデミー,-,足立区古千谷本町２丁目１２番１８号,小売,-,-,2,,35.805545,139.77599
1046,リケイ電子株式会社,江川浩,足立区皿沼１丁目２２番３号,メーカー,http://www.rikeiele.com/,-,0,,35.793395,139.762847
1048,株式会社セイチ,-,足立区千住桜木２丁目５番５−６０３号,-,-,-,,,35.755361,139.786461
1049,株式会社エヌケイ工業,勝田信仁,足立区大谷田５丁目１８番４号,建設,http://www.nkkogyo.jp,03-5697-4493,1,,35.78373,139.839345
1050,株式会社合建,-,足立区保木間５丁目８番１６号,-,-,-,,,35.80436,139.803197
1051,ゼロエミッション株式会社,-,足立区入谷１丁目６番１３号,-,-,-,,,35.803769,139.768468
1052,株式会社セフティー梅田,-,足立区梅田６丁目１０番９号,建設,-,-,3,,35.768341,139.79706
1054,株式会社ツカサ,-,足立区入谷１丁目１７番１６号,メーカー,-,-,3,,35.803769,139.768468
1055,株式会社クレイジーファクトリー,-,足立区西新井栄町１丁目１６番２号,商社,-,-,,,35.774025,139.788795
1056,株式会社マコト,-,足立区青井６丁目１１番２号,-,http://www.makotoacr.jp/,-,,,35.77687,139.81343
1057,ホームウォーター株式会社,-,足立区西新井１丁目３８番１６号,-,-,-,1,,35.78031,139.781021
1059,株式会社イワキプランニング,岩城　厚仁,足立区保木間２丁目２２番１５号,小売,http://www.iwaki-planning.jp/,03-3858-1234,5,,35.793455,139.806234
1060,株式会社ダイナック,松浦康夫,足立区千住２丁目５番１４号ＭＫビル５０１,建設,-,03-5831-0113,1,,35.74958,139.801967
1061,株式会社キコウシャ,-,足立区保木間５丁目８番１６号,-,-,-,,,35.80436,139.803197
1062,株式会社ＫＳＰエンタテインメント,-,足立区扇２丁目８番２０号,-,-,-,,,35.763224,139.765885
1063,株式会社ＫＯＲＡＮ,-,足立区扇３丁目２３番５号−２０３,-,-,-,,,35.770022,139.772176
1064,株式会社マルチノックス,-,足立区西新井４丁目４４番２１号,-,-,-,,,35.787855,139.775443
1065,アイワ工業株式会社,川並秀介,足立区六木４丁目８番２８号,建設,-,03-3620-4105,12,,35.795981,139.838221
1066,株式会社ラビット研究所,-,足立区東和４丁目１６番１２号,-,-,-,2,,35.773291,139.841935
1067,インテシス株式会社,-,足立区佐野２丁目３５番１０号,-,-,-,,,35.787565,139.838744
1068,株式会社アドニス,-,足立区加賀１丁目１０番１９号,-,-,-,,,35.788745,139.758953
1069,株式会社ハウスナイン,-,足立区西綾瀬２丁目９番１８号,建設,-,-,2,,35.763724,139.814163
1070,株式会社韓日情報貿易,-,足立区新田３丁目３７番１１号,-,-,-,2,,35.771394,139.748646
1071,株式会社上原組,-,足立区関原２丁目２５番１０−１０１号,建設,-,-,,,35.766962,139.789046
1072,株式会社日本エスシーマネジメント,-,足立区小台１丁目２２番２号,-,-,-,3,,35.755444,139.771557
1073,株式会社明幸,代表取締役 滝沢 継明,足立区綾瀬４丁目２４番１３号,建設,http://meiko.bz/,-,30,,35.765351,139.822318
1074,株式会社シムス,-,足立区保木間３丁目３６番７号,-,-,-,,,35.796447,139.806375
1075,株式会社アウターワークス,-,足立区西新井５丁目３番９号,-,-,-,,,35.784404,139.775653
1076,株式会社ＫＢＳ,-,足立区扇１丁目２１番１５号,-,https://www.shokunin-san.com/?action=public_searchShop_search_detail&company_name1_like=%8A%94%8E%AE%89%EF%8E%D0K%20B%20S&top=1,-,1,,35.762366,139.774261
1077,株式会社ウェンディプリンティング,-,足立区花畑７丁目７番２号,メーカー,-,-,,,35.809662,139.819232
1078,株式会社Ｒ・Ｋ,-,足立区六町３丁目５番１３号,-,-,-,6,,35.785898,139.818488
1079,株式会社齋藤工業,-,足立区日ノ出町１番５号,-,-,-,,,35.753521,139.810519
1080,株式会社プロテクト,-,足立区千住桜木１丁目１０番１６−４０６号,建設,-,-,28,,35.751393,139.792051
1081,株式会社珍味堂,達城貞明,足立区南花畑４丁目８番４号,メーカー,http://www.chinmido.net/,-,3,,35.796992,139.819152
1082,株式会社ビッグクレイン,-,足立区江北２丁目４８番２０号江二ビル２０１,商社,-,-,1,,35.768191,139.763191
1083,アーツ・プラン株式会社,-,足立区鹿浜５丁目２４番９−４０５号,-,-,-,,,35.785595,139.754383
1084,株式会社みのり,-,足立区梅田２丁目１５番８号,-,-,-,,,35.765632,139.801509
1085,株式会社アソシパート,-,足立区綾瀬２丁目２４番１号ロイヤルアヤセ４Ｆ,-,-,-,,,35.759926,139.828332
1086,株式会社コーシン,-,足立区千住３丁目６番地ツォード千住壱番館８０１号,建設,-,-,1,,35.751635,139.802709
1087,株式会社岩田,-,足立区西綾瀬３丁目２２番５号,商社,-,-,1,,35.764148,139.816971
1088,ニーゴー株式会社,-,足立区西新井４丁目２番１２−１０１号,-,-,-,,,35.787855,139.775443
1089,株式会社ＫＥＩ−ＳＨＩＮ,-,足立区六月１丁目１７番１−５０２号,-,-,-,,,35.78691,139.800232
1090,株式会社トライアイズ,-,足立区東和２丁目６番１２号,商社,-,-,,,35.768813,139.841969
1091,株式会社桂防災工業,-,足立区鹿浜４丁目１１番１５‐１０２号,建設,-,-,3,,35.781259,139.758237
1092,株式会社クラテック,-,足立区梅田５丁目２４番７−１０１号,建設,-,-,6,,35.769298,139.794037
1093,株式会社アウローラ,佐藤優,足立区鹿浜２丁目３６番１３号,小売,http://auro-ra.net/,-,2,,35.781856,139.747084
1094,暁設備株式会社,-,足立区東和３丁目１３番１−１３１８号,-,-,-,2,,35.771717,139.837921
1095,株式会社まごころ,内山慎一,足立区関原３丁目３３番５号,小売,-,-,14,,35.771742,139.788709
1096,株式会社ゼロプラス,-,足立区鹿浜７丁目３番１８−１０７号,建設,-,-,1,,35.785268,139.763499
1097,株式会社平誠,-,足立区新田３丁目１７番９号,商社,-,-,5,,35.771394,139.748646
1098,株式会社ハウジングプラザ東京,-,足立区綾瀬３丁目７番２号,建設,http://h-p-t.jp,-,,,35.764004,139.826444
1099,株式会社ＤＥＶＥＬ,-,足立区一ツ家３丁目９番８−２０６号,-,-,-,,,35.780196,139.813414
1100,株式会社モティーズジャパン,-,足立区中央本町１丁目１８番１４−１２０４号,-,-,-,2,,35.772771,139.804417
1101,株式会社ヤンバ,-,足立区梅田４丁目５番４号,-,-,-,22,,35.762929,139.793216
1102,株式会社ファーストオートトレーディング,-,足立区東伊興３丁目２２番４３号コスモハイツ２０１,-,-,-,,,35.801544,139.791922
1103,株式会社フクリンエン,-,足立区江北４丁目１番７−２０６号,-,-,-,2,,35.773847,139.766786
1104,株式会社日本設備,-,足立区青井４丁目１番６号,情報・通信,-,-,0,,35.774982,139.819686
1105,株式会社ファルマ,-,足立区東保木間１丁目２１番１０−３０６号,情報・通信,-,-,,,35.789408,139.813648
1107,株式会社トミケン,-,足立区中央本町２丁目８番６号,建設,-,-,3,,35.769019,139.807742
1108,株式会社アツミ内装,-,足立区綾瀬７丁目４番１４号,-,-,-,2,,35.773905,139.826534
1109,株式会社ＣＯＬＯＲＦＵＬ,-,足立区綾瀬２丁目２６番１号,情報・通信,-,-,1,,35.759926,139.828332
1110,株式会社ＡＬＴＡ,菅野幹也,足立区谷中２丁目１６番１４号,サービス,http://www.tokyo-alta.co.jp/,-,3,,35.775863,139.832888
1111,株式会社傳土木工業,-,足立区興野２丁目１５番８号,建設,-,-,,,35.768833,139.777366
1112,株式会社花久,-,足立区東和１丁目３番１号,-,-,-,6,,35.766668,139.837754
1113,ＭＳジャパン株式会社,大豆生田哲男,足立区小台２丁目５番１−２１３号,-,http://msmat.jp/,-,1,,35.758417,139.759615
1114,株式会社ＡＩＭＩＮＧ,-,足立区梅田７丁目２９番２号,情報・通信,-,-,,,35.769553,139.800673
1115,株式会社ｂｌｕｅｆｌｏｗｅｒ,-,足立区扇１丁目９番２２号,-,-,-,3,,35.762366,139.774261
1116,エイコーエンジニア株式会社,片桐嘉智,足立区東伊興３丁目５番２３−１０７号,建設,http://eikoh.info/,-,22,,35.801544,139.791922
1117,株式会社ヤナセ,-,足立区足立３丁目９番１８号,建設,-,-,,,35.763981,139.810429
1118,株式会社関東ウォール,田中功,足立区谷中３丁目３番１８号,メーカー,https://www.dezumi.jp/,-,6,,35.779211,139.834924
1119,株式会社早矢仕住設,-,足立区伊興３丁目８番１号,-,-,-,1,,35.793973,139.785411
1120,株式会社ＨｏｕｓｅＢａｎｋ,-,足立区西新井栄町３丁目８番８号,不動産、レンタル・リース,http://www.housebank.jp,03-5888-7020,2,,35.776365,139.783343
1121,株式会社ジャスト,-,足立区千住橋戸町６１−１０２号,商社,-,-,,,35.740193,139.797811
1122,株式会社大塚建築設備,大塚浩二,足立区伊興５丁目５番２９号,建設,http://www.ootsuka-ks.co.jp,03-3897-5531,17,,35.798861,139.782432
1123,株式会社真友,-,足立区千住緑町２丁目７番１８号鈴木レジデンス１０号,商社,-,-,0,,35.744936,139.792197
1124,明日希興業株式会社,-,足立区六木１丁目５番９号−１０８,建設,-,-,9,,35.791125,139.837839
1125,株式会社キャラマスヤマノ,-,足立区加平２丁目２５番１１号,-,-,-,1,,35.780366,139.826296
1126,株式会社ジュエル大根田,-,足立区保木間４丁目４番２３号,-,-,-,1,,35.798723,139.805974
1127,株式会社コカモール,-,足立区小台１丁目２２番２−８０９号,-,-,-,,,35.755444,139.771557
1128,株式会社仁生堂,-,足立区梅田８丁目１４番２−２０４号,-,-,-,,,35.772921,139.795128
1129,株式会社近藤解体興業,近藤丈司,足立区竹の塚１丁目３３番９号,建設,http://www.kondou-kaitai.tokyo/,03-5856-6784,8,,35.790869,139.791713
1130,株式会社クオリティリサーチ,-,足立区新田３丁目３７番１１号,建設,-,-,,,35.771394,139.748646
1131,株式会社ダイトー,村本光繁,足立区一ツ家１丁目２８番７号,小売,http://www.daitocwkk73.com/,-,23,,35.781838,139.809753
1132,キッコー株式会社,-,足立区青井１丁目１５番１４号,-,-,-,0,,35.774083,139.812714
1133,大江戸警備株式会社,-,足立区千住仲町１９番６号和光ビル９０４号室,サービス,http://ooedo-keibi.com/,-,12,,35.744983,139.800544
1134,童里夢パートナーズ株式会社,-,足立区足立３丁目２５番２２号,-,-,-,1,,35.763981,139.810429
1135,ワイ・ツー株式会社,山本芳宏,足立区千住河原町４７−１１,建設,-,03-5284-3945,2,,35.743103,139.798787
1136,日東空圧株式会社,-,足立区千住５丁目１２番３号,-,-,-,,,35.756268,139.804677
1137,かのおか株式会社,-,足立区興野２丁目２５番２５号,-,-,-,,,35.768833,139.777366
1138,株式会社ミズホプランニング,-,足立区中央本町３丁目４番６−３０１号,-,-,-,,,35.772271,139.808058
1139,ゼンエーエンジニアリング株式会社,-,足立区西綾瀬３丁目１８番２４−４０４号,情報・通信,-,-,1,,35.764148,139.816971
1140,ＳＡＮＩＫＭＯ　ＬＡＮＫＡ　ＪＡＰＡＮ株式会社,-,足立区南花畑３丁目６番２号,-,-,-,,,35.792441,139.824996
1141,株式会社ラブラボカンパニー,-,足立区西新井栄町１丁目１８番１号,-,-,-,,,35.774025,139.788795
1143,株式会社ＣＲＵＩＳＥ,-,足立区千住２丁目６２番地根岸ビル１−２,-,-,-,,,35.74958,139.801967
1144,Ｄｅｒａｊｅｃｔ株式会社,-,足立区保木間５丁目２２番２３号,-,-,-,,,35.80436,139.803197
1145,株式会社アビス,-,足立区伊興３丁目２０番１０号,-,-,-,0,,35.793973,139.785411
1146,種市防水工業株式会社,-,足立区加平２丁目７番５号,建設,-,-,4,,35.780366,139.826296
1148,株式会社三輝,-,足立区神明南２丁目３番１８−２０６号,-,-,-,8,,35.789237,139.832085
1149,株式会社ニューブリッヂ,-,足立区千住旭町４番１３号ＣＯＴＥＤＡＺＵＲ３Ｆ,不動産、レンタル・リース,-,-,0,,35.748874,139.80716
1150,株式会社パブセンス,-,足立区梅田４丁目３２番１６号,-,-,-,2,,35.762929,139.793216
1151,大成商事株式会社,-,足立区西新井本町２丁目５番５号,-,-,-,,,35.775826,139.772349
1152,株式会社クローバー,渡辺裕一,足立区伊興５丁目２０番１７号,-,http://www.hairmake-clover.jp/,-,1,,35.798861,139.782432
1153,株式会社ウォーターデザイン,芝塚全功,足立区足立４丁目１７番２０−６０６号,-,http://waterdesign.info/,-,1,,35.766192,139.805789
1155,株式会社和南蛮プロジェクト,-,足立区東和１丁目２番５−７０３号,-,-,-,,,35.766668,139.837754
1156,株式会社新伸東京,-,足立区扇１丁目３２番１２号,-,-,-,1,,35.762366,139.774261
1157,株式会社Ｈａｉｒ　Ｍａｎｂｏｕ,-,足立区中川４丁目２０番１号,-,-,-,1,,35.771442,139.846681
1158,株式会社発研セイコー,久永満勝,足立区入谷５丁目１５番５号,商社,http://www.hakkenseiko.jp/,03-3890-1733,103,,35.803842,139.762302
1159,株式会社バンビーノ,鈴木圭子,足立区梅田５丁目２８番１４号,-,http://banbihoikuen.com,-,39,,35.769298,139.794037
1160,株式会社韓園,-,足立区千住仲町１２番１０号,-,-,-,,,35.744983,139.800544
1161,株式会社Ｔ−Ｓｔｙｌｅ,-,足立区江北６丁目２５番１５号,-,-,-,5,,35.780864,139.767539
1162,クイックイタレート株式会社,-,足立区佐野２丁目４１番９号,-,-,-,4,,35.787565,139.838744
1163,株式会社ＤＡＥ生物研究所,-,足立区千住旭町２８番１３号,-,-,-,,,35.748874,139.80716
1165,株式会社マツマサ,松本昭雄,足立区古千谷本町２丁目６番１７号,建設,-,0120-291-607,0,,35.805545,139.77599
1166,株式会社シェア,-,足立区千住桜木２丁目１０番１５号,不動産、レンタル・リース,-,-,,,35.755361,139.786461
1167,株式会社ドルチェ,-,足立区千住曙町４−８−１０２,-,-,-,,,35.741828,139.814018
1168,株式会社サンタアナジャパン,-,足立区佐野２丁目２６番２号,小売,-,-,,,35.787565,139.838744
1169,株式会社ＮｉＸ,藤田洋子,足立区竹の塚２丁目８番１９号,サービス,http://www.nix-web.com/,-,3,,35.791029,139.795441
1170,株式会社ディーハウス,-,足立区皿沼１丁目１番８号,-,-,-,,,35.793395,139.762847
1171,株式会社メリーコート,-,足立区竹の塚２丁目２８番１３号,-,-,-,0,,35.791029,139.795441
1172,株式会社エコライフワールド,-,足立区宮城１丁目１５番５号,-,-,-,,,35.75933,139.755095
1173,株式会社ＪＬＯ,-,足立区弘道２丁目２６番５号トップ五反野５１１号,メーカー,-,-,,,35.768347,139.818147
1174,ＨＳホールディングス株式会社,-,足立区南花畑４丁目２０番１８号,-,-,-,,,35.796992,139.819152
1175,株式会社横町,-,足立区入谷１丁目１５番９号,不動産、レンタル・リース,-,-,1,,35.803769,139.768468
1176,株式会社デンタルサポート,-,足立区中川３丁目２８番２号−５０５,情報・通信,-,-,0,,35.771376,139.854087
1177,株式会社糟谷,-,足立区梅田７丁目２４番１３−６０１号,-,-,-,3,,35.769553,139.800673
1178,株式会社みなみ友,-,足立区花畑２丁目１６番１０号,医療・福祉,-,-,3,,35.801817,139.817021
1179,株式会社ＫＡＺＵ,-,足立区千住宮元町１３番１４号高橋ビル２Ｆ,-,-,-,,,35.746798,139.796199
1180,株式会社ライジング,-,足立区栗原３丁目２１番１１号,-,-,-,,,35.780269,139.785368
1181,株式会社アレイドマスター,-,足立区扇１丁目３番７号,-,-,-,1,,35.762366,139.774261
1182,株式会社ウィッシュ,-,足立区西新井栄町１丁目１８番１号,-,-,-,,,35.774025,139.788795
1184,株式会社ＹＳＴ企画,-,足立区栗原４丁目８番１９−５０２号,-,-,-,,,35.785392,139.785461
1185,株式会社プロアクティブ・スタッフ,-,足立区中央本町２丁目２０番１３号,-,-,-,1,,35.769019,139.807742
1186,水都ビルメンテナンス株式会社,-,足立区伊興３丁目２３番１５号,-,-,-,,,35.793973,139.785411
1187,株式会社ハマダ,濱田茂樹,足立区千住２丁目５２番地,-,-,-,,,35.74958,139.801967
1188,株式会社アイコニックスシステム,-,足立区西新井本町１丁目１６番１２号,メーカー,-,-,,,35.77579,139.779365
1189,株式会社野生アミノ酸２０,-,足立区南花畑５丁目９番６号,商社,-,-,,,35.796305,139.813981
1190,株式会社翔和,-,足立区綾瀬６丁目２１番１３号,建設,-,-,,,35.77093,139.826063
1191,株式会社ルミエール,-,足立区保木間３丁目２０番６号,-,-,-,,,35.796447,139.806375
1192,株式会社有星,-,足立区花畑８丁目５番１７号,-,-,-,,,35.811659,139.822854
1194,株式会社北澤鍛工所,-,足立区小台２丁目２３番１５号,メーカー,-,03-5390-0620,1,,35.758417,139.759615
1195,株式会社ＨＩＮＡリース,-,足立区西新井栄町１丁目１８番３３−８０４号,-,-,-,,,35.774025,139.788795
1196,ＴＦＣ株式会社,-,足立区鹿浜７丁目３番１８−１０５号,-,-,-,1,,35.785268,139.763499
1197,エースグローバルエキスプレス株式会社,曹啓子,足立区江北６丁目１１番１２号,サービス,http://agexjp.com/,-,2,,35.780864,139.767539
1198,株式会社ＴＭライン,中森香緒里,足立区西新井本町４丁目２８番１７号,運輸・倉庫関連,http://www.tmline-pro.com,-,9,,35.772781,139.777998
1199,ＰＡＬＭ株式会社,-,足立区青井３丁目３２番１号,-,-,-,,,35.771768,139.819242
1200,株式会社レジデンシャル不動産,内田廣輝,足立区千住１丁目１８番１号,不動産、レンタル・リース,https://e-resi.co.jp/,03-5838-0598,234,,35.747835,139.801407
1201,惠豊商事株式会社,-,足立区大谷田３丁目１２番２３−２２２号,-,-,-,,,35.778755,139.841164
1202,ファーストボンディ株式会社,-,足立区西新井栄町３丁目１６番１９号,建設,-,-,0,,35.776365,139.783343
1203,株式会社紙庵プロジェクト,-,足立区保木間１丁目１７番２号,-,-,-,,,35.790538,139.806494
1204,株式会社コスメ横丁,-,足立区花畑１丁目８番６号,-,-,-,,,35.799723,139.812801
1205,株式会社時絆倶,-,足立区大谷田２丁目３番３５−１−７０１号,-,-,-,,,35.782465,139.845017
1206,株式会社大金,-,足立区竹の塚６丁目１５番６−２０６号,-,-,-,,,35.795695,139.792763
1207,株式会社はぴねす,-,足立区千住２丁目６１番地水野ビル２Ｆ,-,-,-,,,35.74958,139.801967
1208,株式会社アクティス,-,足立区神明南１丁目１４番２３号,-,-,-,2,,35.788641,139.828751
1209,株式会社チアトータルサポート,-,足立区栗原２丁目７番１−４０６号,-,-,-,,,35.783516,139.789158
1210,ＫＥＹ　ＰＬＵＳ　ＣＯＮＳＵＬＴＩＮＧ株式会社,-,足立区中央本町１丁目１８番１４−２０５号,-,-,-,1,,35.772771,139.804417
1211,ホールセール株式会社,-,足立区南花畑２丁目４８番１５号,商社,-,-,,,35.790927,139.819521
1213,株式会社リレーション,-,足立区伊興１丁目２４番２５号センチュリー２１ビル４階,不動産、レンタル・リース,-,-,1,,35.790038,139.784815
1214,株式会社ダンキー,-,足立区保木間４丁目５２番６号山根ビル１Ｆ,商社,-,-,2,,35.798723,139.805974
1215,カエデ企画株式会社,-,足立区竹の塚６丁目１６番１１号,医療・福祉,-,-,,,35.795695,139.792763
1216,株式会社ハウスマネジメント,山本利昭,足立区関原３丁目６番１４号,建設,http://house-mg.jp/,-,1,,35.771742,139.788709
1217,株式会社テクノオート,-,足立区南花畑２丁目４９番８号,サービス,-,-,3,,35.790927,139.819521
1218,株式会社フォーシーズン,-,足立区弘道１丁目１４番１１−１０２号,建設,-,-,,,35.768519,139.812339
1219,株式会社コンスタート,-,足立区西新井１丁目１０番５−８０２号,-,-,-,2,,35.78031,139.781021
1220,株式会社カーファクトリー金子,-,足立区加賀２丁目１５番３号,商社,-,03-3899-8459,1,,35.792695,139.760153
1221,株式会社丸越,山崎慎二,足立区千住龍田町１２番７号,商社,http://www.t-marukoshi.co.jp/,-,1,,35.75121,139.795375
1222,たなかマネジメント株式会社,-,足立区中央本町１丁目１３番１６号,不動産、レンタル・リース,-,-,2,,35.772771,139.804417
1223,株式会社ＺＪ　Ｒｏｔｈｓｃｈｉｌｄ,-,足立区梅島３丁目３６番１８号,-,-,-,1,,35.775806,139.794888
1225,アールトランス株式会社,-,足立区南花畑４丁目１１番１５号,-,-,-,2,,35.796992,139.819152
1226,株式会社名版堂,-,足立区保木間４丁目３４番４号,-,-,-,6,,35.798723,139.805974
1227,ＤＯＵＢＬＥ株式会社,-,足立区堀之内１丁目１７番４号,サービス,-,-,25,,35.774037,139.753907
1228,株式会社ＴＧ,-,足立区青井４丁目２３番１８号,-,-,-,1,,35.774982,139.819686
1229,株式会社スマート建築研究所,-,足立区西竹の塚２丁目６番１６号,-,-,-,,,35.796069,139.789875
1230,株式会社エルディーブイ,-,足立区梅島１丁目１２番６号,サービス,-,-,,,35.772496,139.800703
1231,株式会社椿,-,足立区江北６丁目２３番８号,小売,-,-,4,,35.780864,139.767539
1232,株式会社ＬＩＶ　ＪＡＰＡＮ,-,足立区竹の塚５丁目１番１−２０５号,-,-,-,,,35.795687,139.796115
1233,株式会社千寿商事,-,足立区千住２丁目１２番地,-,-,-,,,35.74958,139.801967
1235,株式会社エストライブ,-,足立区花畑１丁目２８番５号ヴェルドミールＩ２０３号,-,-,-,,,35.799723,139.812801
1236,株式会社信栄情報プランニング,-,足立区中川２丁目１３番１７号,-,-,-,0,,35.769147,139.855327
1237,株式会社鈴正,-,足立区栗原３丁目１０番１４号上村ビル４階,商社,-,-,1,,35.780269,139.785368
1238,株式会社アニマルリンクス,-,足立区西新井栄町２丁目５番３号,-,-,-,,,35.7766,139.788031
1239,株式会社キープアライアンス,-,足立区西新井１丁目３８番１１号オリエント第６ビル２０９,-,-,-,,,35.78031,139.781021
1240,株式会社まるこう,-,足立区千住河原町１４番３号,-,-,-,,,35.743103,139.798787
1242,大角機械株式会社,-,足立区辰沼２丁目７番５号,商社,-,-,3,,35.789713,139.834325
1243,株式会社イチイ,-,足立区扇１丁目２１番２０号,-,-,-,13,,35.762366,139.774261
1244,株式会社まこと商会,-,足立区大谷田３丁目９番１０号,-,-,-,2,,35.778755,139.841164
1245,株式会社郷古企画,-,足立区谷中１丁目２１番８−６０１号,-,-,-,,,35.77249,139.832129
1246,株式会社アドバンス・ネクスト,-,足立区鹿浜８丁目８番８号,-,http://www.advance-next.jp/,-,7,,35.788198,139.763594
1247,菅原工務店株式会社,-,足立区興野２丁目６番１３号,建設,-,-,2,,35.768833,139.777366
1248,株式会社ヒロセ,-,足立区加賀２丁目２８番１８号,-,-,-,1,,35.792695,139.760153
1249,ＹＧＫＭ株式会社,-,足立区弘道１丁目４の１５,サービス,-,-,,,35.768519,139.812339
1250,株式会社アドヴァンビジョン,-,足立区千住緑町２丁目６番２８号,商社,http://advan-vision.com,-,1,,35.744936,139.792197
1251,株式会社スターバレー,-,足立区新田２丁目２２番３号,サービス,-,-,1,,35.772706,139.741102
1252,幸峰興業株式会社,-,足立区保木間５丁目２４番２４−５０６号,-,-,-,,,35.80436,139.803197
1253,株式会社ムラタ,-,足立区皿沼２丁目５番１３号,メーカー,-,-,1,,35.791652,139.767304
1254,株式会社ＳＰプロテクションズ,渡部竜二,足立区竹の塚３丁目１０番１号,建設,http://sp-pro.jp/,-,5,,35.790758,139.800143
1255,ハンウェイテック株式会社,小曽根礼子,足立区千住中居町２５番６号,-,http://hannuei-tec.com/,-,5,,35.749437,139.79773
1257,エーピーファクトリー株式会社,-,足立区青井３丁目３番８号,商社,-,-,,,35.771768,139.819242
1258,エスジー株式会社,塩貝久,足立区宮城１丁目６番１５号,メーカー,-,03-3919-3301,38,,35.75933,139.755095
1259,株式会社リアルス,-,足立区江北１丁目３２番１６号,不動産、レンタル・リース,-,-,7,,35.769804,139.768329
1260,株式会社中市,-,足立区千住仲町１９番６号,建設,-,-,0,,35.744983,139.800544
1261,株式会社サクセスロード,-,足立区千住旭町４０番２号秀ビル５階,-,-,-,,,35.748874,139.80716
1262,株式会社＿隆,-,足立区梅島２丁目４番２２号,-,-,-,3,,35.77665,139.800335
1263,株式会社Ａｏｂａ,武井知樹,足立区千住１丁目２４番３号,建設,http://aoba-global.jp/,-,6,,35.747835,139.801407
1264,株式会社山神産業,-,足立区谷在家１丁目１８番１０−５０１号,-,-,-,3,,35.786648,139.771071
1265,フュージョン・エンジニアリング株式会社,-,足立区西伊興１丁目７番９号,情報・通信,-,-,1,,35.792396,139.77469
1266,株式会社Ｊｕｓｋ,-,足立区鹿浜４丁目９番１２号,-,-,-,2,,35.781259,139.758237
1267,株式会社ウルマ・コーポレーション,梨子田英夫,足立区伊興４丁目１番３５号,商社,https://premium.ipros.jp/uruma-corporation/,-,1,,35.797136,139.784136
1268,株式会社ＲＩＫＩ,-,足立区鹿浜２丁目２３番３号,情報・通信,-,-,4,,35.781856,139.747084
1269,株式会社ＨＯＴ　ＬＩＮＥ,-,足立区皿沼３丁目２４番１２号,-,-,-,3,,35.794327,139.766861
1270,株式会社ＢＳＭ,-,足立区江北１丁目２９番１８号,-,-,-,,,35.769804,139.768329
1271,Ｊａｐａｎ　Ｐｅｒｆｏｒｍａｎｃｅ　Ｍａｓｔｅｒ株式会社,-,足立区千住東２丁目２４番１号,-,-,-,,,35.745471,139.808241
1272,株式会社ニュースタイル,-,足立区西新井栄町１丁目１８番１号,情報・通信,-,-,,,35.774025,139.788795
1273,株式会社ほりこう,-,足立区伊興１丁目１７番１６号,-,-,-,1,,35.790038,139.784815
1274,株式会社伏見工芸,-,足立区栗原４丁目３番７号,-,-,-,,,35.785392,139.785461
1275,アイラ・インターナショナル株式会社,-,足立区千住３丁目６番地ランドステージ北千住ジョイフロント９０６号,-,-,-,,,35.751635,139.802709
1276,エムイーＰＬＵＳ城東株式会社,春木寿夫,足立区南花畑２丁目７番８号,不動産、レンタル・リース,http://www.megroup-4.jp/,-,31,,35.790927,139.819521
1277,株式会社ｔｖｉｄ,-,足立区神明南２丁目７番１９号コーポ辰善２０５,-,-,-,,,35.789237,139.832085
1278,株式会社誠信,-,足立区佐野２丁目２６番１８号,-,-,-,,,35.787565,139.838744
1279,株式会社アルクス,-,足立区青井４丁目３０番１６−２１２号,-,-,-,,,35.774982,139.819686
1280,株式会社ＷＡＧ,-,足立区綾瀬４丁目２９番１号,-,-,-,,,35.765351,139.822318
1281,株式会社ハナヤマ,-,足立区小台１丁目１６番１２−３０２号,-,-,-,1,,35.755444,139.771557
1282,株式会社クリーンメンテナンス日本,-,足立区加平２丁目１７番１２号,-,-,-,,,35.780366,139.826296
1284,株式会社エムズ・ライン,-,足立区加平１丁目２１番１８−９０５号,-,-,-,15,,35.775903,139.826866
1285,株式会社ａｉＲｏｕｔｅ,-,足立区足立４丁目８番３号高砂ビル３階,サービス,-,-,2,,35.766192,139.805789
1286,株式会社Ｐａｊｉ．Ｋ１,-,足立区青井４丁目４４番７号,-,-,-,,,35.774982,139.819686
1288,株式会社ＭＯＶＥ,-,足立区西新井栄町１丁目１６番２号,サービス,-,-,,,35.774025,139.788795
1290,株式会社優,代表取締役 横島 圭,足立区保木間３丁目１８番５号,-,http://tire-yurin.com/,-,7,,35.796447,139.806375
1291,中沢建設株式会社,中沢貴行,足立区東綾瀬３丁目１番１５号,建設,http://nakazawakensetu.com/,-,25,,35.770916,139.833559
1292,株式会社マタドール,-,足立区千住東２丁目４番１７号中村ビル１階,-,-,-,2,,35.745471,139.808241
1293,株式会社イノベート,西野直樹,足立区足立４丁目１３番９号ベルビュービル６階,-,http://innovate-reform.com/,-,22,,35.766192,139.805789
1294,株式会社Ｗａｔｅｒ　Ｗｏｒｋｓ,-,足立区関原２丁目２２番１７号,建設,-,-,1,,35.766962,139.789046
1295,株式会社Ｌｅａｐ,-,足立区平野３丁目３番２号,-,-,-,,,35.78446,139.807231
1296,Ｔ．Ｓ　ＥＮＴＥＲＰＲＩＳＥ株式会社,-,足立区関原３丁目９番３号,小売,-,-,0,,35.771742,139.788709
1297,ＧＯＪ株式会社,-,足立区西新井５丁目１番３号,-,-,-,1,,35.784404,139.775653
1298,株式会社Ｔ’ｓ,-,足立区日ノ出町２１番４号,-,-,-,,,35.753521,139.810519
1299,ＮＳＳ株式会社,-,足立区神明南１丁目１番８号,-,-,-,,,35.788641,139.828751
1300,株式会社大高介護サービス,-,足立区島根３丁目２１番１３号２０８号室,-,-,-,,,35.779603,139.794499
1301,株式会社北隆,-,足立区花畑４丁目２７番２号,-,-,-,7,,35.803625,139.807797
1302,和花和華株式会社,-,足立区小台２丁目３７−１９コーポたけうち２Ｆ,-,-,-,2,,35.758417,139.759615
1304,クリエートユウ株式会社,-,足立区栗原３丁目９番７号,-,-,-,1,,35.780269,139.785368
1305,株式会社ササ機,-,足立区竹の塚４丁目１１番３号,建設,-,-,2,,35.793974,139.800052
1306,株式会社北良,-,足立区東伊興１丁目５番１３号,-,-,-,3,,35.803208,139.784031
1307,株式会社リードワールド,-,足立区鹿浜２丁目５−１８−４０１,-,-,-,,,35.781856,139.747084
1308,株式会社リンドバーグ,-,足立区西新井栄町２丁目６番９号,-,-,-,2,,35.7766,139.788031
1309,株式会社メイコー警備,中村幸治,足立区佐野１丁目２０番地２２号,サービス,-,-,12,,35.787173,139.843499
1310,株式会社マグノリア,-,足立区綾瀬２丁目２０番１２−５０３号,-,-,-,,,35.759926,139.828332
1311,株式会社レストア,-,足立区千住東２丁目２番４号,-,-,-,,,35.745471,139.808241
1312,株式会社Ｅタイプ,-,足立区一ツ家１丁目１３番１４号,サービス,-,-,,,35.781838,139.809753
1313,株式会社エー・エム・エス,-,足立区足立２丁目１０番１１号,商社,-,-,,,35.758779,139.81049
1314,Ｏｆｆｉｃｅ　ＦＬＡＴ株式会社,-,足立区南花畑２丁目４番２０号,-,-,-,1,,35.790927,139.819521
1315,株式会社ＴＯＰ,-,足立区谷中３丁目８番１５号,メーカー,-,-,,,35.779211,139.834924
1316,株式会社フォーティーン,-,足立区鹿浜７丁目１１番８号,-,-,-,1,,35.785268,139.763499
1317,株式会社タッグ・ワン,-,足立区梅田２丁目５番１４号,-,-,-,1,,35.765632,139.801509
1318,八芳商事株式会社,-,足立区梅島３丁目１番５号相澤ビル２Ｆ,-,-,-,,,35.775806,139.794888
1319,ドルフィン株式会社,-,足立区千住龍田町３０−６・１０１号室,-,-,-,,,35.75121,139.795375
1320,株式会社ＤｕｃｋｓＡｎｄＤｒａｋｅｓ,-,足立区舎人４丁目１０番１２号,メーカー,-,-,0,,35.816555,139.767733
1321,株式会社バイスター,-,足立区千住橋戸町１番地４−２１６号室,小売,-,-,1,,35.740193,139.797811
1323,ケイズ・ラボ株式会社,-,足立区千住河原町２１番１２号,-,-,-,1,,35.743103,139.798787
1324,株式会社ジール,-,足立区島根４丁目１１番１２号,-,-,-,2,,35.782985,139.79454
1325,株式会社エムティ工業,-,足立区古千谷本町２丁目１０番２５号,-,-,-,1,,35.805545,139.77599
1326,株式会社Ｏｋｉ・Ｐａｎｄａ,-,足立区西新井３丁目４番１４−Ｃ号,-,-,-,,,35.788332,139.781409
1327,株式会社コバコ,-,足立区舎人３丁目７番２３号,-,-,-,1,,35.813186,139.773673
1328,株式会社Ｕｔｒｉｂｅ,-,足立区宮城１丁目１１番３号,-,-,-,,,35.75933,139.755095
1331,株式会社Ｒ・ＤＥＳＩＧＮ,-,足立区綾瀬３丁目７番１８号,サービス,-,-,,,35.764004,139.826444
1332,株式会社布川,-,足立区西新井６丁目２４番１１号,建設,-,-,10,,35.780529,139.776124
1333,アルピア・インターナショナル株式会社,-,足立区西新井２丁目３番２−６０７号,-,-,-,,,35.784381,139.781432
1334,株式会社東京教育センター,-,足立区西竹の塚１丁目１９番７号,教育・研究,-,-,,,35.792027,139.788406
1335,株式会社サンエスプラス,-,足立区西伊興３丁目１５番２５号,-,-,-,,,35.798353,139.777356
1336,株式会社豊栄興業,-,足立区保塚町６番５号,建設,-,-,11,,35.786674,139.812942
1337,株式会社プロロックレスキューサービス,-,足立区新田２丁目８番１９号,-,-,-,,,35.772706,139.741102
1338,ヘイセイ寝台サポート株式会社,田中由美,足立区梅島３丁目６番１７号,-,-,-,6,,35.775806,139.794888
1339,株式会社親幸電設,松本徹,足立区皿沼１丁目１８番１０号津山ビル,建設,-,03-5647-9697,6,,35.793395,139.762847
1340,ＳｕｇａｒＢｅａｔｓ株式会社,-,足立区千住関屋町５番２２−９０２号,情報・通信,https://sugarbeats.co.jp,-,11,,35.741334,139.806568
1341,株式会社スイート・ラグーン,-,足立区梅田１丁目２１番１号,-,-,-,2,,35.762166,139.801593
1343,株式会社モリ建,-,足立区南花畑５丁目３番６号,-,-,-,1,,35.796305,139.813981
1344,株式会社高翔,-,足立区西新井本町５丁目２番１８−４１１号,建設,-,-,0,,35.773892,139.783153
1345,株式会社渡邉商事,-,足立区西新井栄町２丁目３番１５号,-,-,-,1,,35.7766,139.788031
1346,株式会社イー・プロジェクト,-,足立区竹の塚２丁目２８番８号,-,-,-,,,35.791029,139.795441
1347,株式会社サヤカ,-,足立区日ノ出町２６番１−５０６号,-,-,-,,,35.753521,139.810519
1348,株式会社ＳＧ,大久保高明,足立区舎人２丁目８−３,メーカー,http://www.sgsys.co.jp/,-,5,,35.811296,139.771662
1349,株式会社ワタトー,-,足立区東保木間２丁目１８番９号,メーカー,-,-,,,35.792872,139.813541
1350,株式会社Ｂｌｕｅ　Ｂｅｅ,-,足立区千住曙町４１番１−７０８号,-,-,-,,,35.741828,139.814018
1351,Ｙ＆Ｓ株式会社,-,足立区本木２丁目３０番１０号,-,-,-,,,35.767596,139.785349
1352,株式会社ＳＡＣ,-,足立区西伊興１丁目５番２６号,-,-,-,9,,35.792396,139.77469
1353,株式会社あや企画,-,足立区日ノ出町１３番２号,-,-,-,,,35.753521,139.810519
1354,株式会社丸福,-,足立区梅島１丁目１１番７号,-,-,-,,,35.772496,139.800703
1355,株式会社エコテクノ,-,足立区中央本町４丁目１１番２２号,サービス,-,-,0,,35.775434,139.808267
1356,株式会社小林塗装,-,足立区西伊興１丁目１５番９号,-,-,-,7,,35.792396,139.77469
1357,株式会社木村一級建築士事務所,-,足立区島根１丁目４番７号,サービス,-,-,1,,35.77926,139.799926
1359,サニートゥルース株式会社,-,足立区入谷１丁目２１番１４号,-,-,-,1,,35.803769,139.768468
1360,株式会社新井工房,-,足立区西新井本町１丁目２７番７−１０１号,-,-,-,2,,35.77579,139.779365
1361,株式会社ロン・ワールド,-,足立区一ツ家２丁目１１番２１号,商社,-,-,,,35.783317,139.813445
1362,株式会社池哉,-,足立区六月２丁目１番１号リナス竹ノ塚２０４,-,-,-,,,35.786418,139.795161
1363,くろがね建築デザイン株式会社,-,足立区鹿浜５丁目２３番１号,-,-,-,1,,35.785595,139.754383
1364,株式会社ブリッジ,タカハシヒロキ,足立区足立１丁目２４番１６−２０２号,-,-,-,2,,35.761522,139.805576
1365,株式会社狼月堂,-,足立区保木間２丁目６番１３−４０１号,サービス,-,-,,,35.793455,139.806234
1366,株式会社岩井重量,-,足立区伊興４丁目１１番１号,-,-,-,2,,35.797136,139.784136
1367,魁正工業株式会社,-,足立区興野１丁目８番１号,-,-,-,,,35.769563,139.782365
1368,株式会社徳成武道具,-,足立区綾瀬３丁目５番１６号,-,-,-,0,,35.764004,139.826444
1369,株式会社フォレストプラス,-,足立区神明３丁目１番５号,-,-,-,2,,35.797064,139.835222
1370,株式会社リアン,-,足立区竹の塚６丁目８番１０号,-,-,-,,,35.795695,139.792763
1371,株式会社人事・組織レベルアップ研究所,-,足立区六町３丁目５番１０号,-,-,-,4,,35.785898,139.818488
1372,株式会社ベータ・ガラクシア,-,足立区保木間１丁目１０番７号,-,-,-,,,35.790538,139.806494
1373,シールズ株式会社,-,足立区伊興２丁目７番２５号,-,-,-,2,,35.792936,139.781086
1374,株式会社ＤＵＲＧＡ,-,足立区千住曙町３番１６号,-,-,-,1,,35.741828,139.814018
1375,株式会社アクティブ,-,足立区保木間５丁目１１番１−１０２号,建設,https://www.ip-lambda.com/search/advertising/tokyo/senju/ayase/shop/1042/,03-5831-5951,,,35.80436,139.803197
1376,株式会社エクシトトリニティー,-,足立区栗原１丁目８番１５号,情報・通信,-,-,4,,35.780414,139.789422
1377,株式会社シンコーオートサービス,-,足立区椿１丁目６番５号,-,-,-,0,,35.777762,139.759
1378,株式会社サンベルクス,鈴木秀夫,足立区花畑５丁目１４番１号,小売,http://www.sunbelx.com/,03-3858-8719,,,35.807241,139.808763
1379,株式会社エスポワール,-,足立区六月２丁目１番６号,-,-,-,,,35.786418,139.795161
1380,株式会社友進,-,足立区椿２丁目８番２号１Ｆ,-,-,-,,,35.779492,139.759813
1381,株式会社島プロデュース,-,足立区北加平町８番３０,-,-,-,,,35.784064,139.828437
1382,株式会社嶋田,-,足立区足立３丁目１２番１５−１１２号,商社,-,-,,,35.763981,139.810429
1383,株式会社エイダイ,-,足立区中川４丁目２１番１１号,-,-,-,,,35.771442,139.846681
1384,ＣＶＨ株式会社,-,足立区一ツ家２丁目２２番８−５０１号,-,-,-,1,,35.783317,139.813445
1385,株式会社ＳＳＫ,-,足立区興野２丁目３０番２２号,-,-,-,1,,35.768833,139.777366
1386,株式会社わんだ福,-,足立区足立２丁目３７番１２号,-,-,-,2,,35.758779,139.81049
1387,株式会社高橋紙工,-,足立区西新井６丁目１８番１５号,-,-,-,,,35.780529,139.776124
1388,ユナイトコンサルティング株式会社,-,足立区東保木間１丁目１４番１８号,サービス,-,-,1,,35.789408,139.813648
1389,株式会社ＵＫＩ−ＰＬＵＳ,-,足立区西保木間２丁目３番３−５０４号,-,-,-,1,,35.800512,139.79963
1390,株式会社坂上機械,-,足立区大谷田５丁目２番３号,-,-,-,1,,35.78373,139.839345
1391,株式会社下山左官,-,足立区中央本町４丁目１１番８号,-,-,-,1,,35.775434,139.808267
1392,株式会社カウカウエステート,-,足立区南花畑３丁目３番３号ダイヤヴィレッヂ１０１号室,-,-,-,1,,35.792441,139.824996
1393,株式会社木嶋興業,-,足立区辰沼２丁目２番１４号,-,-,-,11,,35.789713,139.834325
1394,ＳＤＳ株式会社,-,足立区足立４丁目３２番２号花月ビル１Ｆ,-,-,-,,,35.766192,139.805789
1395,株式会社ファインディライフ,-,足立区西保木間４丁目１３番８号,-,-,-,3,,35.803186,139.795318
1396,ＬＵＭＩＥＲＥ株式会社,-,足立区千住２丁目１８番地ＡＯ３０３,-,-,-,,,35.74958,139.801967
1397,株式会社インテリア・タキモト,嶽本修平,足立区鹿浜２丁目２５番１号,-,-,03-5837-4267,3,,35.781856,139.747084
1399,株式会社平井産業,-,足立区千住１丁目３９番４−２０２号,-,-,-,9,,35.747835,139.801407
1400,エマバスト・インク株式会社,-,足立区梅島３丁目３６番１８号,-,-,-,1,,35.775806,139.794888
1401,株式会社ハートランド,長谷川健一,足立区綾瀬６丁目７番３５号,商社,-,-,27,,35.77093,139.826063
1403,株式会社オスピタリテ,-,足立区竹の塚１丁目３０番２０号石井ハイツ,-,-,-,11,,35.790869,139.791713
1405,株式会社ＢｎＫ,-,足立区興野２丁目１６番１１号,情報・通信,-,-,,,35.768833,139.777366
1406,株式会社ＫＣＬ,岩村健太,足立区梅田８丁目１４番２−１２０９号,-,http://www.kcl-kk.com/company.html,-,2,,35.772921,139.795128
1407,株式会社ジクーシェア,-,足立区足立３丁目１１番２５号,-,-,-,1,,35.763981,139.810429
1408,株式会社ティー・ピー・シー,-,足立区六月２丁目３１番１２号,-,-,-,1,,35.786418,139.795161
1409,株式会社ケン・エクスプレス,-,足立区新田１丁目２１番２３号,-,-,-,,,35.777123,139.740471
1410,株式会社福伸トラスト不動産,-,足立区西新井１丁目３４番１４号２０１,-,-,-,,,35.78031,139.781021
1411,株式会社小浜設備,-,足立区新田３丁目２７番２２−３０６号,-,-,-,4,,35.771394,139.748646
1412,株式会社長谷川建設,長谷川仁,足立区青井４丁目２８−３−４０４,-,http://hase-ken.co.jp/,-,1,,35.774982,139.819686
1413,株式会社ユア,渡邉佑太,足立区舎人２丁目１９番１０−７０１号,建設,https://your-corp.jp/,050-3567-0456,56,,35.811296,139.771662
1414,ＳＡＳＧＡ株式会社,-,足立区千住東２丁目２４番１−３１３号,-,-,-,,,35.745471,139.808241
1415,株式会社黒河内設備,-,足立区伊興本町２丁目２番３２号,-,-,-,3,,35.801178,139.788121
1416,株式会社オージーエス,-,足立区鹿浜３丁目２５番５号,-,-,-,12,,35.781121,139.753482
1417,株式会社小西工務店,小西雅樹,足立区大谷田５丁目２８番９号,建設,http://k-524.com/,03-5849-2055,3,,35.78373,139.839345
1418,機器販売株式会社,-,足立区綾瀬２丁目１１番１４号３０１,-,-,-,,,35.759926,139.828332
1419,株式会社ａｒａｉ　ｋｏｇｙｏ,-,足立区興野１丁目１８番４号,-,-,-,5,,35.769563,139.782365
1420,メディアワールド株式会社,-,足立区竹の塚７丁目６番１号,-,http://www.media-world.jp/,-,10,,35.799834,139.79521
1421,株式会社ＳＫ総業,-,足立区千住大川町４３番１号,建設,-,-,8,,35.757149,139.79809
1422,株式会社インサークル,-,足立区大谷田４丁目１４番６号,-,-,-,2,,35.778912,139.838128
1423,株式会社安田製作所,-,足立区梅島３丁目１０番１９号,-,-,-,1,,35.775806,139.794888
1424,スリーエイト株式会社,簗瀬浩記,足立区谷中２丁目５番３号,-,http://three888.jp/,-,0,,35.775863,139.832888
1425,株式会社スピード,-,足立区千住２丁目４９番地,-,-,-,,,35.74958,139.801967
1426,株式会社ミストラル,-,足立区竹の塚５丁目１２番７号,-,-,-,1,,35.795687,139.796115
1427,美暢株式会社,-,足立区小台１丁目２２番２−９１３号,-,-,-,,,35.755444,139.771557
1428,株式会社秀和技建,-,足立区加賀１丁目１２番１４号,-,-,-,1,,35.788745,139.758953
1429,株式会社リノベカンパニー,-,足立区足立１丁目３８番１４号,-,-,-,1,,35.761522,139.805576
1430,株式会社瀧本開発,-,足立区舎人１丁目１０番１２号,-,-,-,1,,35.807249,139.770704
1431,株式会社飛澤建設,-,足立区梅田１丁目１３番１４号,-,-,-,1,,35.762166,139.801593
1432,株式会社Ｓ．Ｓ,-,足立区西新井本町５丁目９番４号,-,-,-,8,,35.773892,139.783153
1433,株式会社トライリッチ,-,足立区西新井本町１丁目２７−２９,-,-,-,,,35.77579,139.779365
1434,株式会社Ｋコーポレーション,-,足立区千住桜木１丁目１番６号,-,-,-,,,35.751393,139.792051
1435,株式会社重電,-,足立区東六月町５番６グーディッシュ竹ノ塚弐番館９０２号,-,-,-,5,,35.787524,139.806009
1436,株式会社ＭＡＸ,川嶋浩一,足立区竹の塚１丁目３５番１２号,メーカー,http://www.reform-max.com/,-,1,,35.790869,139.791713
1437,株式会社Ｅ．Ｍ．Ｓ,-,足立区西新井本町５丁目７番１４号,情報・通信,-,-,5,,35.773892,139.783153
1438,株式会社東京クレイン,-,足立区中央本町４丁目１６番２号,-,-,-,,,35.775434,139.808267
1439,株式会社宝永産業,-,足立区西新井本町１丁目２７番１７号１Ｆ,-,-,-,,,35.77579,139.779365
1440,クローバーホールディングス株式会社,-,足立区鹿浜５丁目２０番４号,-,-,-,,,35.785595,139.754383
1441,株式会社グロウウィル,-,足立区西新井栄町１丁目１８番１１−３０８号,-,-,-,1,,35.774025,139.788795
1442,株式会社ワカバ,-,足立区竹の塚２丁目２７番１号,運輸・倉庫関連,-,-,1,,35.791029,139.795441
1443,株式会社ＴＥＴＯＳＡ,-,足立区本木２丁目３２番３号,-,-,-,1,,35.767596,139.785349
1444,株式会社永成工業,-,足立区西新井１丁目１番６号中村ビル３Ｆ,-,-,-,,,35.78031,139.781021
1445,ＴＴＳ株式会社,-,足立区南花畑２丁目９番１３号,-,-,-,1,,35.790927,139.819521
1446,株式会社ワールドＢＳＫ,-,足立区西新井４丁目３７番１１号,-,-,-,1,,35.787855,139.775443
1447,株式会社ＫＨコーポレーション,-,足立区入谷９丁目１８番６号,-,-,-,1,,35.809011,139.754661
1448,株式会社オフィスエム,-,足立区関原３丁目２−１８,-,-,-,,,35.771742,139.788709
1450,株式会社クラシコ,林陽平,足立区舎人２丁目１０番８−７０１号,-,http://clasico2002.com/,-,1,,35.811296,139.771662
1451,株式会社ゼスト,-,足立区千住１丁目２９番１−３０９号,-,-,-,0,,35.747835,139.801407
1452,株式会社ｍｉａｍ,-,足立区新田３丁目３７番１３−９０１号,-,-,-,,,35.771394,139.748646
1453,サイバーヘルスコンサルティング株式会社,-,足立区西新井本町２丁目１６番８号１Ｆ,サービス,-,-,1,,35.775826,139.772349
1454,株式会社ＷＩＳＨ,-,足立区東伊興１丁目１６番６号,-,-,-,4,,35.803208,139.784031
1455,ｖａｍ−ｌｙａ株式会社,-,足立区中央本町３丁目１７番地１２号,-,-,-,,,35.772271,139.808058
1456,谷川賃貸住宅サービス株式会社,-,足立区六木３丁目４１番２号ハイツＮＡＯ２０１,-,-,-,,,35.797245,139.842774
1458,株式会社三友,-,足立区加平３丁目１番１−２０９号,-,-,-,0,,35.780082,139.82902
1459,株式会社ＫＵＲＯＧＡＮＥ,-,足立区鹿浜５丁目１６番２０号,-,-,-,1,,35.785595,139.754383
1460,安＿貿易株式会社,-,足立区千住緑町１丁目２１番１０号,-,-,-,,,35.742577,139.792502
1461,株式会社エフテック,-,足立区青井２丁目１４番１９号,-,-,-,,,35.772297,139.814732
1462,株式会社ホープフル未来社,-,足立区谷中４丁目１４番４−３０４号,-,-,-,,,35.782042,139.832019
1463,株式会社高橋グラウト,-,足立区江北３丁目２５番１０号,-,-,-,3,,35.774461,139.761223
1464,株式会社オキノ,-,足立区興野２丁目２５番２５号,-,-,-,3,,35.768833,139.777366
1465,ビートラスト株式会社,-,足立区大谷田２丁目３番３５−１−６０３号,-,-,-,6,,35.782465,139.845017
1466,株式会社コマースアシスト,-,足立区東六月町６番１８−２０２号,-,-,-,1,,35.787524,139.806009
1467,株式会社リンケージ,-,足立区梅島３丁目４番２４号,-,-,-,,,35.775806,139.794888
1468,株式会社ハッピーライフ,-,足立区中川４丁目２３番１９−７１４号,-,-,-,0,,35.771442,139.846681
1469,株式会社マツシタ工業,-,足立区東和４丁目３番２５−１０３号,-,-,-,2,,35.773291,139.841935
1470,株式会社萩原電気,-,足立区江北６丁目３０番３−３０２号,-,-,-,1,,35.780864,139.767539
1471,ＳＯＬＦＯＲＭＥ株式会社,-,足立区辰沼２丁目１６番地２８号,-,-,-,39,,35.789713,139.834325
1472,株式会社ワンウッド,-,足立区佐野１丁目１９番２１号,-,-,-,1,,35.787173,139.843499
1473,ＨＹ株式会社,-,足立区足立４丁目２１番２−１０４号,-,-,-,,,35.766192,139.805789
1474,朝日クルーズ株式会社,-,足立区梅島２丁目３８番１６号,運輸・倉庫関連,-,-,1,,35.77665,139.800335
1476,さくら訪問介護株式会社,-,足立区東綾瀬１丁目２３番１４号,-,-,-,4,,35.764485,139.832352
1477,株式会社おおうち,-,足立区中央本町５丁目２番３号１Ｆ,-,-,-,3,,35.77781,139.807122
1478,株式会社エステートＨ,-,足立区綾瀬５丁目１番１４号Ｈ−Ｂａｓｅ３Ｆ,-,-,-,1,,35.767511,139.826795
1479,株式会社ネオフィリア,-,足立区柳原１丁目２０番１２−２０３号,-,-,-,,,35.745585,139.815065
1480,株式会社プレミアム,-,足立区西保木間２丁目８番２５−１００２号サンクレイドル竹ノ塚,-,-,-,,,35.800512,139.79963
1481,株式会社坂松興産,-,足立区弘道１丁目１４番２３号１Ｆ,-,-,-,0,,35.768519,139.812339
1482,株式会社ＫＪＨ　ｉｎｔｅｒｎａｔｉｏｎａｌ,-,足立区椿２丁目５番５号,-,-,-,,,35.779492,139.759813
1483,共立建設工業株式会社,-,足立区舎人１丁目１３番５号,-,-,-,1,,35.807249,139.770704
1484,株式会社高信建設,-,足立区一ツ家２丁目１４番１５−２０２号ベレオメゾン六町,-,-,-,5,,35.783317,139.813445
1485,神谷重量株式会社,-,足立区西新井４丁目２番１７号,-,-,-,1,,35.787855,139.775443
1486,扶桑ネクスト株式会社,-,足立区六木３丁目３５番１２号,-,-,-,1,,35.797245,139.842774
1487,株式会社サンクス,-,足立区関原３丁目１５番９号,小売,-,-,4,,35.771742,139.788709
1488,株式会社ハヤシコーポレーション,-,足立区西保木間２丁目８番９号,-,-,-,,,35.800512,139.79963
1489,株式会社やまと,-,足立区佐野２丁目２６番１６号,-,-,-,11,,35.787565,139.838744
1490,株式会社エーエル,-,足立区扇１丁目３８番５号,-,-,-,7,,35.762366,139.774261
1491,東京不動産マネジメント株式会社,-,足立区弘道１丁目１９番３−２０３号,-,-,-,1,,35.768519,139.812339
1492,橋本輸送株式会社,-,足立区舎人５丁目９番２号,-,-,-,7,,35.811593,139.767983
1493,スペシャルパワー株式会社,-,足立区六月１丁目２９番１３号Ｇ−１,-,-,-,,,35.78691,139.800232
1494,フューチャーインターナショナル株式会社,-,足立区綾瀬４丁目５番２０号,-,-,-,1,,35.765351,139.822318
1495,株式会社クリオス,-,足立区谷在家３丁目１７番１７号,-,-,-,,,35.788807,139.768057
1496,株式会社Ｑｕａｌｉｔｙ,山岡龍矢,足立区神明２丁目１０番１２号,-,http://image-lab.info/index/,-,0,,35.79429,139.835124
1497,すばる交通株式会社,森晃一,足立区千住旭町６番１６号,情報・通信,http://www.subaru-t.co.jp,-,146,,35.748874,139.80716
1498,ジャパンサイエンスインスティチュート株式会社,-,足立区東綾瀬３丁目１３番１０号,-,-,-,,,35.770916,139.833559
1499,株式会社マイナレッジ,-,足立区千住桜木１丁目３番３−１００３号,-,-,-,1,,35.751393,139.792051
1500,株式会社ティーグランディール,-,足立区千住緑町３丁目２６番６号,-,-,-,4,,35.747166,139.79246
1501,株式会社千興,-,足立区東和４丁目１１番１７−３０５号,-,-,-,1,,35.773291,139.841935
1502,株式会社ケーエムティーコネクト,-,足立区梅島１丁目３１番４号,-,-,-,,,35.772496,139.800703
1503,株式会社永斗,-,足立区竹の塚４丁目２番１１−１２０２号,-,-,-,9,,35.793974,139.800052
1504,株式会社ＬＡＧＣＩＥ,-,足立区千住旭町３５番１８号,-,-,-,6,,35.748874,139.80716
1505,株式会社ＭＹＧルフテック,-,足立区梅島１丁目２６番２号,-,-,-,1,,35.772496,139.800703
1506,株式会社Ｅａｒｌｙ　Ｃｒｏｓｓ,-,足立区北加平町２１番６−４０５号,-,-,-,4,,35.784064,139.828437
1507,株式会社ＴＫＩ,-,足立区鹿浜１丁目１４−８,-,-,-,,,35.776167,139.748476
1508,株式会社リーベックス,-,足立区綾瀬３丁目５番１７号２０２,公社・団体・官公庁,-,-,4,,35.764004,139.826444
1509,株式会社ル・シエル,-,足立区東和２丁目１１番１２号,-,-,-,1,,35.768813,139.841969
1510,株式会社Ｊｕｎｃｔｉｏｎ６９,-,足立区南花畑１丁目３番７号,-,-,-,2,,35.787716,139.82441
1511,株式会社スーザー,-,足立区保木間５丁目２４番２４−１０６,-,-,-,1,,35.80436,139.803197
1512,斎藤畜産清掃事業株式会社,-,足立区平野３丁目１０番４−２０６号,-,-,-,0,,35.78446,139.807231
1513,ＢＡＳＵＮＤＨＡＲＡ　ＣＯＭＰＡＮＹ株式会社,-,足立区谷在家３丁目１番３号ドルフｏｚ１１−４０２,-,-,-,,,35.788807,139.768057
1514,カットワン株式会社,-,足立区竹の塚５丁目７番１９号,-,-,-,2,,35.795687,139.796115
1515,株式会社Ｃ・ＢＲＡＩＮ,-,足立区新田３丁目３７番１１−１６０８号,-,-,-,2,,35.771394,139.748646
1516,株式会社Ｋ３Ｐａｉｎｔ,-,足立区保木間３丁目２６番１６号,-,-,-,1,,35.796447,139.806375
1518,ＳＧＳ警備株式会社,-,足立区東和３丁目１２番３４号キャッスルハイム１０１,-,-,-,29,,35.771717,139.837921
1519,株式会社花豆とうかい道,-,足立区花畑３丁目３４番８号−１階,-,-,-,3,,35.803676,139.81266
1520,株式会社オフィスライズ,-,足立区綾瀬６丁目７番２１号−２階,-,-,-,4,,35.77093,139.826063
1521,株式会社クレアフィート,-,足立区青井２丁目１７番２号,-,-,-,1,,35.772297,139.814732
1522,株式会社千力,-,足立区東綾瀬３丁目５番１２号,-,-,-,,,35.770916,139.833559
1523,株式会社オガワ建創,-,足立区千住寿町１６番２号,-,-,-,4,,35.753088,139.799171
1524,みらいマーケティング株式会社,-,足立区梅島３丁目３３番６号,-,-,-,2,,35.775806,139.794888
